{
  "counts": {
    "lga": 774,
    "skipped": 11,
    "states": 38,
    "total": 9572,
    "ward": 8798
  },
  "generated_at": "2026-06-08T02:08:17Z",
  "places": [
    {
      "aliases": [
        "Aba North",
        "Aba North, Nigeria"
      ],
      "hotspot": false,
      "kind": "lga",
      "lat": 5.3333333,
      "lng": 7.3166667,
      "name": "Aba North, Abia",
      "source": "xosasx_nigerian_local_government_areas",
      "state": "Abia"
    },
    {
      "aliases": [
        "Aba South",
        "Aba South, Nigeria"
      ],
      "hotspot": false,
      "kind": "lga",
      "lat": 5.1,
      "lng": 7.35,
      "name": "Aba South, Abia",
      "source": "xosasx_nigerian_local_government_areas",
      "state": "Abia"
    },
    {
      "aliases": [
        "Arochukwu",
        "Arochukwu, Nigeria"
      ],
      "hotspot": false,
      "kind": "lga",
      "lat": 5.3833333,
      "lng": 7.9166667,
      "name": "Arochukwu, Abia",
      "source": "xosasx_nigerian_local_government_areas",
      "state": "Abia"
    },
    {
      "aliases": [
        "Bende",
        "Bende, Nigeria"
      ],
      "hotspot": false,
      "kind": "lga",
      "lat": 5.5666667,
      "lng": 7.6333333,
      "name": "Bende, Abia",
      "source": "xosasx_nigerian_local_government_areas",
      "state": "Abia"
    },
    {
      "aliases": [
        "Ikwuano",
        "Ikwuano, Nigeria"
      ],
      "hotspot": false,
      "kind": "lga",
      "lat": 5.4333333,
      "lng": 7.5666667,
      "name": "Ikwuano, Abia",
      "source": "xosasx_nigerian_local_government_areas",
      "state": "Abia"
    },
    {
      "aliases": [
        "Isiala Ngwa North",
        "Isiala Ngwa North, Nigeria"
      ],
      "hotspot": false,
      "kind": "lga",
      "lat": 5.388966,
      "lng": 7.446948,
      "name": "Isiala Ngwa North, Abia",
      "source": "xosasx_nigerian_local_government_areas",
      "state": "Abia"
    },
    {
      "aliases": [
        "Isiala Ngwa South",
        "Isiala Ngwa South, Nigeria"
      ],
      "hotspot": false,
      "kind": "lga",
      "lat": 5.36241,
      "lng": 7.39998,
      "name": "Isiala Ngwa South, Abia",
      "source": "xosasx_nigerian_local_government_areas",
      "state": "Abia"
    },
    {
      "aliases": [
        "Isuikwuato",
        "Isuikwuato, Nigeria"
      ],
      "hotspot": false,
      "kind": "lga",
      "lat": 5.533333,
      "lng": 7.483333,
      "name": "Isuikwuato, Abia",
      "source": "xosasx_nigerian_local_government_areas",
      "state": "Abia"
    },
    {
      "aliases": [
        "Obi Ngwa",
        "Obi Ngwa, Nigeria"
      ],
      "hotspot": false,
      "kind": "lga",
      "lat": 5.155402,
      "lng": 7.457067,
      "name": "Obi Ngwa, Abia",
      "source": "xosasx_nigerian_local_government_areas",
      "state": "Abia"
    },
    {
      "aliases": [
        "Ohafia",
        "Ohafia, Nigeria"
      ],
      "hotspot": false,
      "kind": "lga",
      "lat": 5.6166667,
      "lng": 7.8333333,
      "name": "Ohafia, Abia",
      "source": "xosasx_nigerian_local_government_areas",
      "state": "Abia"
    },
    {
      "aliases": [
        "Osisioma",
        "Osisioma, Nigeria"
      ],
      "hotspot": false,
      "kind": "lga",
      "lat": 5.1497222,
      "lng": 7.3302778,
      "name": "Osisioma, Abia",
      "source": "xosasx_nigerian_local_government_areas",
      "state": "Abia"
    },
    {
      "aliases": [
        "Ugwunagbo",
        "Ugwunagbo, Nigeria"
      ],
      "hotspot": false,
      "kind": "lga",
      "lat": 4.984474,
      "lng": 7.325783,
      "name": "Ugwunagbo, Abia",
      "source": "xosasx_nigerian_local_government_areas",
      "state": "Abia"
    },
    {
      "aliases": [
        "Ukwa East",
        "Ukwa East, Nigeria"
      ],
      "hotspot": false,
      "kind": "lga",
      "lat": 4.8872,
      "lng": 7.3572,
      "name": "Ukwa East, Abia",
      "source": "xosasx_nigerian_local_government_areas",
      "state": "Abia"
    },
    {
      "aliases": [
        "Ukwa West",
        "Ukwa West, Nigeria"
      ],
      "hotspot": false,
      "kind": "lga",
      "lat": 4.9884,
      "lng": 7.2425,
      "name": "Ukwa West, Abia",
      "source": "xosasx_nigerian_local_government_areas",
      "state": "Abia"
    },
    {
      "aliases": [
        "Umu-Nneochi",
        "Umu-Nneochi, Nigeria"
      ],
      "hotspot": false,
      "kind": "lga",
      "lat": 5.985662,
      "lng": 7.469005,
      "name": "Umu-Nneochi, Abia",
      "source": "xosasx_nigerian_local_government_areas",
      "state": "Abia"
    },
    {
      "aliases": [
        "Umuahia North",
        "Umuahia North, Nigeria"
      ],
      "hotspot": false,
      "kind": "lga",
      "lat": 5.5333,
      "lng": 7.4833,
      "name": "Umuahia North, Abia",
      "source": "xosasx_nigerian_local_government_areas",
      "state": "Abia"
    },
    {
      "aliases": [
        "Umuahia South",
        "Umuahia South, Nigeria"
      ],
      "hotspot": false,
      "kind": "lga",
      "lat": 5.515311,
      "lng": 7.447314,
      "name": "Umuahia South, Abia",
      "source": "xosasx_nigerian_local_government_areas",
      "state": "Abia"
    },
    {
      "aliases": [
        "Aba River",
        "Aba River Ward",
        "Aba River, Aba South",
        "Aba River, Abia State"
      ],
      "hotspot": false,
      "kind": "ward",
      "lat": 5.0862265,
      "lng": 7.3705272,
      "name": "Aba River, Aba South, Abia",
      "source": "temikeezy_nigeria_geojson_data",
      "state": "Abia"
    },
    {
      "aliases": [
        "Aba Town Hall",
        "Aba Town Hall Ward",
        "Aba Town Hall, Aba South",
        "Aba Town Hall, Abia State"
      ],
      "hotspot": false,
      "kind": "ward",
      "lat": 5.1032095,
      "lng": 7.3622599,
      "name": "Aba Town Hall, Aba South, Abia",
      "source": "temikeezy_nigeria_geojson_data",
      "state": "Abia"
    },
    {
      "aliases": [
        "Abayi I",
        "Abayi I Ward",
        "Abayi I, Abia State",
        "Abayi I, Oboma Ngwa"
      ],
      "hotspot": false,
      "kind": "ward",
      "lat": 5.1266991,
      "lng": 7.4333017,
      "name": "Abayi I, Oboma Ngwa, Abia",
      "source": "temikeezy_nigeria_geojson_data",
      "state": "Abia"
    },
    {
      "aliases": [
        "Abayi II",
        "Abayi II Ward",
        "Abayi II, Abia State",
        "Abayi II, Oboma Ngwa"
      ],
      "hotspot": false,
      "kind": "ward",
      "lat": 5.1154001,
      "lng": 7.4082711,
      "name": "Abayi II, Oboma Ngwa, Abia",
      "source": "temikeezy_nigeria_geojson_data",
      "state": "Abia"
    },
    {
      "aliases": [
        "Achara / Mgbugwu",
        "Achara / Mgbugwu Ward",
        "Achara / Mgbugwu, Abia State",
        "Achara / Mgbugwu, Isuikwuato"
      ],
      "hotspot": false,
      "kind": "ward",
      "lat": 5.8516285,
      "lng": 7.411687,
      "name": "Achara / Mgbugwu, Isuikwuato, Abia",
      "source": "temikeezy_nigeria_geojson_data",
      "state": "Abia"
    },
    {
      "aliases": [
        "Afugiri",
        "Afugiri Ward",
        "Afugiri, Abia State",
        "Afugiri, Umuahia North"
      ],
      "hotspot": false,
      "kind": "ward",
      "lat": 5.6031514,
      "lng": 7.454542,
      "name": "Afugiri, Umuahia North, Abia",
      "source": "temikeezy_nigeria_geojson_data",
      "state": "Abia"
    },
    {
      "aliases": [
        "Agboji Abiriba",
        "Agboji Abiriba Ward",
        "Agboji Abiriba, Abia State",
        "Agboji Abiriba, Ohafia"
      ],
      "hotspot": false,
      "kind": "ward",
      "lat": 5.706534,
      "lng": 7.7738984,
      "name": "Agboji Abiriba, Ohafia, Abia",
      "source": "temikeezy_nigeria_geojson_data",
      "state": "Abia"
    },
    {
      "aliases": [
        "Ahiaba",
        "Ahiaba Ward",
        "Ahiaba, Abia State",
        "Ahiaba, Oboma Ngwa"
      ],
      "hotspot": false,
      "kind": "ward",
      "lat": 5.149774,
      "lng": 7.3922208,
      "name": "Ahiaba, Oboma Ngwa, Abia",
      "source": "temikeezy_nigeria_geojson_data",
      "state": "Abia"
    },
    {
      "aliases": [
        "Ahiaukwu I",
        "Ahiaukwu I Ward",
        "Ahiaukwu I, Abia State",
        "Ahiaukwu I, Umuahia South"
      ],
      "hotspot": false,
      "kind": "ward",
      "lat": 5.4297948,
      "lng": 7.497884,
      "name": "Ahiaukwu I, Umuahia South, Abia",
      "source": "temikeezy_nigeria_geojson_data",
      "state": "Abia"
    },
    {
      "aliases": [
        "Ahiaukwu II",
        "Ahiaukwu II Ward",
        "Ahiaukwu II, Abia State",
        "Ahiaukwu II, Umuahia South"
      ],
      "hotspot": false,
      "kind": "ward",
      "lat": 5.4662609,
      "lng": 7.4942754,
      "name": "Ahiaukwu II, Umuahia South, Abia",
      "source": "temikeezy_nigeria_geojson_data",
      "state": "Abia"
    },
    {
      "aliases": [
        "Akumaimo",
        "Akumaimo Ward",
        "Akumaimo, Abia State",
        "Akumaimo, Oboma Ngwa"
      ],
      "hotspot": false,
      "kind": "ward",
      "lat": 5.0500382,
      "lng": 7.4151968,
      "name": "Akumaimo, Oboma Ngwa, Abia",
      "source": "temikeezy_nigeria_geojson_data",
      "state": "Abia"
    },
    {
      "aliases": [
        "Akunekpu Eziama Na Obuba",
        "Akunekpu Eziama Na Obuba Ward",
        "Akunekpu Eziama Na Obuba, Abia State",
        "Akunekpu Eziama Na Obuba, Isiala Ngwa South"
      ],
      "hotspot": false,
      "kind": "ward",
      "lat": 5.3243197,
      "lng": 7.448683,
      "name": "Akunekpu Eziama Na Obuba, Isiala Ngwa South, Abia",
      "source": "temikeezy_nigeria_geojson_data",
      "state": "Abia"
    },
    {
      "aliases": [
        "Akwete",
        "Akwete Ward",
        "Akwete, Abia State",
        "Akwete, Ukwa East"
      ],
      "hotspot": false,
      "kind": "ward",
      "lat": 4.8929089,
      "lng": 7.3964689,
      "name": "Akwete, Ukwa East, Abia",
      "source": "temikeezy_nigeria_geojson_data",
      "state": "Abia"
    },
    {
      "aliases": [
        "Alaukwu Ohanze",
        "Alaukwu Ohanze Ward",
        "Alaukwu Ohanze, Abia State",
        "Alaukwu Ohanze, Oboma Ngwa"
      ],
      "hotspot": false,
      "kind": "ward",
      "lat": 5.1325094,
      "lng": 7.4666517,
      "name": "Alaukwu Ohanze, Oboma Ngwa, Abia",
      "source": "temikeezy_nigeria_geojson_data",
      "state": "Abia"
    },
    {
      "aliases": [
        "Ama - Asaa",
        "Ama - Asaa Ward",
        "Ama - Asaa, Abia State",
        "Ama - Asaa, Osisioma"
      ],
      "hotspot": false,
      "kind": "ward",
      "lat": 5.2503232,
      "lng": 7.3621053,
      "name": "Ama - Asaa, Osisioma, Abia",
      "source": "temikeezy_nigeria_geojson_data",
      "state": "Abia"
    },
    {
      "aliases": [
        "Amaeke Abiriba",
        "Amaeke Abiriba Ward",
        "Amaeke Abiriba, Abia State",
        "Amaeke Abiriba, Ohafia"
      ],
      "hotspot": false,
      "kind": "ward",
      "lat": 5.7205111,
      "lng": 7.7552196,
      "name": "Amaeke Abiriba, Ohafia, Abia",
      "source": "temikeezy_nigeria_geojson_data",
      "state": "Abia"
    },
    {
      "aliases": [
        "Amaise / Amaise Anaba",
        "Amaise / Amaise Anaba Ward",
        "Amaise / Amaise Anaba, Abia State",
        "Amaise / Amaise Anaba, Isiala Ngwa South"
      ],
      "hotspot": false,
      "kind": "ward",
      "lat": 5.2542927,
      "lng": 7.2930238,
      "name": "Amaise / Amaise Anaba, Isiala Ngwa South, Abia",
      "source": "temikeezy_nigeria_geojson_data",
      "state": "Abia"
    },
    {
      "aliases": [
        "Amaitolu Mbutu Umuojima",
        "Amaitolu Mbutu Umuojima Ward",
        "Amaitolu Mbutu Umuojima, Abia State",
        "Amaitolu Mbutu Umuojima, Osisioma"
      ],
      "hotspot": false,
      "kind": "ward",
      "lat": 5.1033125,
      "lng": 7.3042581,
      "name": "Amaitolu Mbutu Umuojima, Osisioma, Abia",
      "source": "temikeezy_nigeria_geojson_data",
      "state": "Abia"
    },
    {
      "aliases": [
        "Amakama",
        "Amakama Ward",
        "Amakama, Abia State",
        "Amakama, Umuahia South"
      ],
      "hotspot": false,
      "kind": "ward",
      "lat": 5.4586891,
      "lng": 7.4489598,
      "name": "Amakama, Umuahia South, Abia",
      "source": "temikeezy_nigeria_geojson_data",
      "state": "Abia"
    },
    {
      "aliases": [
        "Amankalu/Akoliufu",
        "Amankalu/Akoliufu Ward",
        "Amankalu/Akoliufu, Abia State",
        "Amankalu/Akoliufu, Bende"
      ],
      "hotspot": false,
      "kind": "ward",
      "lat": 5.7276962,
      "lng": 7.583204,
      "name": "Amankalu/Akoliufu, Bende, Abia",
      "source": "temikeezy_nigeria_geojson_data",
      "state": "Abia"
    },
    {
      "aliases": [
        "Amaogudu Abiriba",
        "Amaogudu Abiriba Ward",
        "Amaogudu Abiriba, Abia State",
        "Amaogudu Abiriba, Ohafia"
      ],
      "hotspot": false,
      "kind": "ward",
      "lat": 5.680823,
      "lng": 7.6935728,
      "name": "Amaogudu Abiriba, Ohafia, Abia",
      "source": "temikeezy_nigeria_geojson_data",
      "state": "Abia"
    },
    {
      "aliases": [
        "Amapu Ntigha",
        "Amapu Ntigha Ward",
        "Amapu Ntigha, Abia State",
        "Amapu Ntigha, Isiala Ngwa North"
      ],
      "hotspot": false,
      "kind": "ward",
      "lat": 5.4127427,
      "lng": 7.4159945,
      "name": "Amapu Ntigha, Isiala Ngwa North, Abia",
      "source": "temikeezy_nigeria_geojson_data",
      "state": "Abia"
    },
    {
      "aliases": [
        "Amasaa Nsulu",
        "Amasaa Nsulu Ward",
        "Amasaa Nsulu, Abia State",
        "Amasaa Nsulu, Isiala Ngwa North"
      ],
      "hotspot": false,
      "kind": "ward",
      "lat": 5.3138542,
      "lng": 7.5008251,
      "name": "Amasaa Nsulu, Isiala Ngwa North, Abia",
      "source": "temikeezy_nigeria_geojson_data",
      "state": "Abia"
    },
    {
      "aliases": [
        "Amasaa Ntigha",
        "Amasaa Ntigha Ward",
        "Amasaa Ntigha, Abia State",
        "Amasaa Ntigha, Isiala Ngwa North"
      ],
      "hotspot": false,
      "kind": "ward",
      "lat": 5.4261861,
      "lng": 7.3686234,
      "name": "Amasaa Ntigha, Isiala Ngwa North, Abia",
      "source": "temikeezy_nigeria_geojson_data",
      "state": "Abia"
    },
    {
      "aliases": [
        "Amasator",
        "Amasator Ward",
        "Amasator, Abia State",
        "Amasator, Osisioma"
      ],
      "hotspot": false,
      "kind": "ward",
      "lat": 5.1465512,
      "lng": 7.333412,
      "name": "Amasator, Osisioma, Abia",
      "source": "temikeezy_nigeria_geojson_data",
      "state": "Abia"
    },
    {
      "aliases": [
        "Amator",
        "Amator Ward",
        "Amator, Abia State",
        "Amator, Osisioma"
      ],
      "hotspot": false,
      "kind": "ward",
      "lat": 5.1863975,
      "lng": 7.2791138,
      "name": "Amator, Osisioma, Abia",
      "source": "temikeezy_nigeria_geojson_data",
      "state": "Abia"
    },
    {
      "aliases": [
        "Amavo",
        "Amavo Ward",
        "Amavo, Abia State",
        "Amavo, Osisioma"
      ],
      "hotspot": false,
      "kind": "ward",
      "lat": 5.1271074,
      "lng": 7.2881998,
      "name": "Amavo, Osisioma, Abia",
      "source": "temikeezy_nigeria_geojson_data",
      "state": "Abia"
    },
    {
      "aliases": [
        "Amuda",
        "Amuda Ward",
        "Amuda, Abia State",
        "Amuda, Umu-Nneochi"
      ],
      "hotspot": false,
      "kind": "ward",
      "lat": 5.9941166,
      "lng": 7.3698779,
      "name": "Amuda, Umu-Nneochi, Abia",
      "source": "temikeezy_nigeria_geojson_data",
      "state": "Abia"
    },
    {
      "aliases": [
        "Ania Ohafia",
        "Ania Ohafia Ward",
        "Ania Ohafia, Abia State",
        "Ania Ohafia, Ohafia"
      ],
      "hotspot": false,
      "kind": "ward",
      "lat": 5.5371107,
      "lng": 7.8153488,
      "name": "Ania Ohafia, Ohafia, Abia",
      "source": "temikeezy_nigeria_geojson_data",
      "state": "Abia"
    },
    {
      "aliases": [
        "Ariam",
        "Ariam Ward",
        "Ariam, Abia State",
        "Ariam, Ikwuano"
      ],
      "hotspot": false,
      "kind": "ward",
      "lat": 5.3472121,
      "lng": 7.6109241,
      "name": "Ariam, Ikwuano, Abia",
      "source": "temikeezy_nigeria_geojson_data",
      "state": "Abia"
    },
    {
      "aliases": [
        "Ariaria Market",
        "Ariaria Market Ward",
        "Ariaria Market, Aba North",
        "Ariaria Market, Abia State"
      ],
      "hotspot": false,
      "kind": "ward",
      "lat": 5.1143186,
      "lng": 7.3434256,
      "name": "Ariaria Market, Aba North, Abia",
      "source": "temikeezy_nigeria_geojson_data",
      "state": "Abia"
    },
    {
      "aliases": [
        "Aro - Ngwa",
        "Aro - Ngwa Ward",
        "Aro - Ngwa, Abia State",
        "Aro - Ngwa, Osisioma"
      ],
      "hotspot": false,
      "kind": "ward",
      "lat": 5.2225124,
      "lng": 7.3291859,
      "name": "Aro - Ngwa, Osisioma, Abia",
      "source": "temikeezy_nigeria_geojson_data",
      "state": "Abia"
    },
    {
      "aliases": [
        "Arochukwu I",
        "Arochukwu I Ward",
        "Arochukwu I, Abia State",
        "Arochukwu I, Arochukwu"
      ],
      "hotspot": false,
      "kind": "ward",
      "lat": 5.3880276,
      "lng": 7.9084229,
      "name": "Arochukwu I, Arochukwu, Abia",
      "source": "temikeezy_nigeria_geojson_data",
      "state": "Abia"
    },
    {
      "aliases": [
        "Arochukwu II",
        "Arochukwu II Ward",
        "Arochukwu II, Abia State",
        "Arochukwu II, Arochukwu"
      ],
      "hotspot": false,
      "kind": "ward",
      "lat": 5.3903387,
      "lng": 7.8908903,
      "name": "Arochukwu II, Arochukwu, Abia",
      "source": "temikeezy_nigeria_geojson_data",
      "state": "Abia"
    },
    {
      "aliases": [
        "Arochukwu III",
        "Arochukwu III Ward",
        "Arochukwu III, Abia State",
        "Arochukwu III, Arochukwu"
      ],
      "hotspot": false,
      "kind": "ward",
      "lat": 5.4126772,
      "lng": 7.8740536,
      "name": "Arochukwu III, Arochukwu, Abia",
      "source": "temikeezy_nigeria_geojson_data",
      "state": "Abia"
    },
    {
      "aliases": [
        "Asa North",
        "Asa North Ward",
        "Asa North, Abia State",
        "Asa North, Ukwa West"
      ],
      "hotspot": false,
      "kind": "ward",
      "lat": 5.0649489,
      "lng": 7.2600372,
      "name": "Asa North, Ukwa West, Abia",
      "source": "temikeezy_nigeria_geojson_data",
      "state": "Abia"
    },
    {
      "aliases": [
        "Asa South",
        "Asa South Ward",
        "Asa South, Abia State",
        "Asa South, Ukwa West"
      ],
      "hotspot": false,
      "kind": "ward",
      "lat": 4.8947682,
      "lng": 7.2236405,
      "name": "Asa South, Ukwa West, Abia",
      "source": "temikeezy_nigeria_geojson_data",
      "state": "Abia"
    },
    {
      "aliases": [
        "Asa",
        "Asa Ward",
        "Asa, Aba South",
        "Asa, Abia State"
      ],
      "hotspot": false,
      "kind": "ward",
      "lat": 5.0836326,
      "lng": 7.3338134,
      "name": "Asa, Aba South, Abia",
      "source": "temikeezy_nigeria_geojson_data",
      "state": "Abia"
    },
    {
      "aliases": [
        "Azumini",
        "Azumini Ward",
        "Azumini, Abia State",
        "Azumini, Ukwa East"
      ],
      "hotspot": false,
      "kind": "ward",
      "lat": 5.0011421,
      "lng": 7.4550757,
      "name": "Azumini, Ukwa East, Abia",
      "source": "temikeezy_nigeria_geojson_data",
      "state": "Abia"
    },
    {
      "aliases": [
        "Bende",
        "Bende Ward",
        "Bende, Abia State",
        "Bende, Bende"
      ],
      "hotspot": false,
      "kind": "ward",
      "lat": 5.533204,
      "lng": 7.5946681,
      "name": "Bende, Bende, Abia",
      "source": "temikeezy_nigeria_geojson_data",
      "state": "Abia"
    },
    {
      "aliases": [
        "Ebem Ohafia",
        "Ebem Ohafia Ward",
        "Ebem Ohafia, Abia State",
        "Ebem Ohafia, Ohafia"
      ],
      "hotspot": false,
      "kind": "ward",
      "lat": 5.5979102,
      "lng": 7.7932186,
      "name": "Ebem Ohafia, Ohafia, Abia",
      "source": "temikeezy_nigeria_geojson_data",
      "state": "Abia"
    },
    {
      "aliases": [
        "Ehina Guru Osokwa",
        "Ehina Guru Osokwa Ward",
        "Ehina Guru Osokwa, Abia State",
        "Ehina Guru Osokwa, Isiala Ngwa South"
      ],
      "hotspot": false,
      "kind": "ward",
      "lat": 5.2971448,
      "lng": 7.4471083,
      "name": "Ehina Guru Osokwa, Isiala Ngwa South, Abia",
      "source": "temikeezy_nigeria_geojson_data",
      "state": "Abia"
    },
    {
      "aliases": [
        "Ekeoha",
        "Ekeoha Ward",
        "Ekeoha, Aba South",
        "Ekeoha, Abia State"
      ],
      "hotspot": false,
      "kind": "ward",
      "lat": 5.0873344,
      "lng": 7.3558839,
      "name": "Ekeoha, Aba South, Abia",
      "source": "temikeezy_nigeria_geojson_data",
      "state": "Abia"
    },
    {
      "aliases": [
        "Eleoha Ihechiowa",
        "Eleoha Ihechiowa Ward",
        "Eleoha Ihechiowa, Abia State",
        "Eleoha Ihechiowa, Arochukwu"
      ],
      "hotspot": false,
      "kind": "ward",
      "lat": 5.5133325,
      "lng": 7.8862158,
      "name": "Eleoha Ihechiowa, Arochukwu, Abia",
      "source": "temikeezy_nigeria_geojson_data",
      "state": "Abia"
    },
    {
      "aliases": [
        "Enyimba",
        "Enyimba Ward",
        "Enyimba, Aba South",
        "Enyimba, Abia State"
      ],
      "hotspot": false,
      "kind": "ward",
      "lat": 5.0773827,
      "lng": 7.3282206,
      "name": "Enyimba, Aba South, Abia",
      "source": "temikeezy_nigeria_geojson_data",
      "state": "Abia"
    },
    {
      "aliases": [
        "Ezeleke/Ogbodiukwu",
        "Ezeleke/Ogbodiukwu Ward",
        "Ezeleke/Ogbodiukwu, Abia State",
        "Ezeleke/Ogbodiukwu, Umuahia South"
      ],
      "hotspot": false,
      "kind": "ward",
      "lat": 5.5142387,
      "lng": 7.4218245,
      "name": "Ezeleke/Ogbodiukwu, Umuahia South, Abia",
      "source": "temikeezy_nigeria_geojson_data",
      "state": "Abia"
    },
    {
      "aliases": [
        "Ezere",
        "Ezere Ward",
        "Ezere, Abia State",
        "Ezere, Isuikwuato"
      ],
      "hotspot": false,
      "kind": "ward",
      "lat": 5.7344397,
      "lng": 7.5226613,
      "name": "Ezere, Isuikwuato, Abia",
      "source": "temikeezy_nigeria_geojson_data",
      "state": "Abia"
    },
    {
      "aliases": [
        "Eziama - Agbo",
        "Eziama - Agbo Ward",
        "Eziama - Agbo, Abia State",
        "Eziama - Agbo, Umu-Nneochi"
      ],
      "hotspot": false,
      "kind": "ward",
      "lat": 5.9343737,
      "lng": 7.2865139,
      "name": "Eziama - Agbo, Umu-Nneochi, Abia",
      "source": "temikeezy_nigeria_geojson_data",
      "state": "Abia"
    },
    {
      "aliases": [
        "Eziama - Ugwu",
        "Eziama - Ugwu Ward",
        "Eziama - Ugwu, Abia State",
        "Eziama - Ugwu, Umu-Nneochi"
      ],
      "hotspot": false,
      "kind": "ward",
      "lat": 5.9731429,
      "lng": 7.3153336,
      "name": "Eziama - Ugwu, Umu-Nneochi, Abia",
      "source": "temikeezy_nigeria_geojson_data",
      "state": "Abia"
    },
    {
      "aliases": [
        "Eziama",
        "Eziama Ward",
        "Eziama, Aba North",
        "Eziama, Abia State"
      ],
      "hotspot": false,
      "kind": "ward",
      "lat": 5.1231766,
      "lng": 7.3671875,
      "name": "Eziama, Aba North, Abia",
      "source": "temikeezy_nigeria_geojson_data",
      "state": "Abia"
    },
    {
      "aliases": [
        "Ezingodo",
        "Ezingodo Ward",
        "Ezingodo, Abia State",
        "Ezingodo, Umu-Nneochi"
      ],
      "hotspot": false,
      "kind": "ward",
      "lat": 5.9625628,
      "lng": 7.416894,
      "name": "Ezingodo, Umu-Nneochi, Abia",
      "source": "temikeezy_nigeria_geojson_data",
      "state": "Abia"
    },
    {
      "aliases": [
        "Eziukwu",
        "Eziukwu Ward",
        "Eziukwu, Aba South",
        "Eziukwu, Abia State"
      ],
      "hotspot": false,
      "kind": "ward",
      "lat": 5.0956568,
      "lng": 7.3406655,
      "name": "Eziukwu, Aba South, Abia",
      "source": "temikeezy_nigeria_geojson_data",
      "state": "Abia"
    },
    {
      "aliases": [
        "Gloucester",
        "Gloucester Ward",
        "Gloucester, Aba South",
        "Gloucester, Abia State"
      ],
      "hotspot": false,
      "kind": "ward",
      "lat": 5.0947151,
      "lng": 7.3704991,
      "name": "Gloucester, Aba South, Abia",
      "source": "temikeezy_nigeria_geojson_data",
      "state": "Abia"
    },
    {
      "aliases": [
        "Ibeku East I",
        "Ibeku East I Ward",
        "Ibeku East I, Abia State",
        "Ibeku East I, Umuahia North"
      ],
      "hotspot": false,
      "kind": "ward",
      "lat": 5.551341,
      "lng": 7.4969575,
      "name": "Ibeku East I, Umuahia North, Abia",
      "source": "temikeezy_nigeria_geojson_data",
      "state": "Abia"
    },
    {
      "aliases": [
        "Ibeku East II",
        "Ibeku East II Ward",
        "Ibeku East II, Abia State",
        "Ibeku East II, Umuahia North"
      ],
      "hotspot": false,
      "kind": "ward",
      "lat": 5.4975825,
      "lng": 7.5044829,
      "name": "Ibeku East II, Umuahia North, Abia",
      "source": "temikeezy_nigeria_geojson_data",
      "state": "Abia"
    },
    {
      "aliases": [
        "Ibeku West",
        "Ibeku West Ward",
        "Ibeku West, Abia State",
        "Ibeku West, Umuahia North"
      ],
      "hotspot": false,
      "kind": "ward",
      "lat": 5.5307759,
      "lng": 7.5144424,
      "name": "Ibeku West, Umuahia North, Abia",
      "source": "temikeezy_nigeria_geojson_data",
      "state": "Abia"
    },
    {
      "aliases": [
        "Ibeme",
        "Ibeme Ward",
        "Ibeme, Abia State",
        "Ibeme, Oboma Ngwa"
      ],
      "hotspot": false,
      "kind": "ward",
      "lat": 5.0615157,
      "lng": 7.5045904,
      "name": "Ibeme, Oboma Ngwa, Abia",
      "source": "temikeezy_nigeria_geojson_data",
      "state": "Abia"
    },
    {
      "aliases": [
        "Ibere I",
        "Ibere I Ward",
        "Ibere I, Abia State",
        "Ibere I, Ikwuano"
      ],
      "hotspot": false,
      "kind": "ward",
      "lat": 5.4251771,
      "lng": 7.5986056,
      "name": "Ibere I, Ikwuano, Abia",
      "source": "temikeezy_nigeria_geojson_data",
      "state": "Abia"
    },
    {
      "aliases": [
        "Ibere II",
        "Ibere II Ward",
        "Ibere II, Abia State",
        "Ibere II, Ikwuano"
      ],
      "hotspot": false,
      "kind": "ward",
      "lat": 5.4558224,
      "lng": 7.5837744,
      "name": "Ibere II, Ikwuano, Abia",
      "source": "temikeezy_nigeria_geojson_data",
      "state": "Abia"
    },
    {
      "aliases": [
        "Igbere 'A'",
        "Igbere 'A' Ward",
        "Igbere 'A', Abia State",
        "Igbere 'A', Bende"
      ],
      "hotspot": false,
      "kind": "ward",
      "lat": 5.707206,
      "lng": 7.6472424,
      "name": "Igbere 'A', Bende, Abia",
      "source": "temikeezy_nigeria_geojson_data",
      "state": "Abia"
    },
    {
      "aliases": [
        "Igbere 'B'",
        "Igbere 'B' Ward",
        "Igbere 'B', Abia State",
        "Igbere 'B', Bende"
      ],
      "hotspot": false,
      "kind": "ward",
      "lat": 5.7014037,
      "lng": 7.6666441,
      "name": "Igbere 'B', Bende, Abia",
      "source": "temikeezy_nigeria_geojson_data",
      "state": "Abia"
    },
    {
      "aliases": [
        "Igwebuike",
        "Igwebuike Ward",
        "Igwebuike, Aba South",
        "Igwebuike, Abia State"
      ],
      "hotspot": false,
      "kind": "ward",
      "lat": 5.0567494,
      "lng": 7.3235344,
      "name": "Igwebuike, Aba South, Abia",
      "source": "temikeezy_nigeria_geojson_data",
      "state": "Abia"
    },
    {
      "aliases": [
        "Ihie",
        "Ihie Ward",
        "Ihie, Abia State",
        "Ihie, Isiala Ngwa North"
      ],
      "hotspot": false,
      "kind": "ward",
      "lat": 5.4101898,
      "lng": 7.3433446,
      "name": "Ihie, Isiala Ngwa North, Abia",
      "source": "temikeezy_nigeria_geojson_data",
      "state": "Abia"
    },
    {
      "aliases": [
        "Ikeagha I",
        "Ikeagha I Ward",
        "Ikeagha I, Abia State",
        "Ikeagha I, Isuikwuato"
      ],
      "hotspot": false,
      "kind": "ward",
      "lat": 5.8313999,
      "lng": 7.4916649,
      "name": "Ikeagha I, Isuikwuato, Abia",
      "source": "temikeezy_nigeria_geojson_data",
      "state": "Abia"
    },
    {
      "aliases": [
        "Ikeagha II",
        "Ikeagha II Ward",
        "Ikeagha II, Abia State",
        "Ikeagha II, Isuikwuato"
      ],
      "hotspot": false,
      "kind": "ward",
      "lat": 5.8169145,
      "lng": 7.441274,
      "name": "Ikeagha II, Isuikwuato, Abia",
      "source": "temikeezy_nigeria_geojson_data",
      "state": "Abia"
    },
    {
      "aliases": [
        "Ikwueke East",
        "Ikwueke East Ward",
        "Ikwueke East, Abia State",
        "Ikwueke East, Ukwa East"
      ],
      "hotspot": false,
      "kind": "ward",
      "lat": 4.8908955,
      "lng": 7.3701029,
      "name": "Ikwueke East, Ukwa East, Abia",
      "source": "temikeezy_nigeria_geojson_data",
      "state": "Abia"
    },
    {
      "aliases": [
        "Ikwueke West",
        "Ikwueke West Ward",
        "Ikwueke West, Abia State",
        "Ikwueke West, Ukwa East"
      ],
      "hotspot": false,
      "kind": "ward",
      "lat": 4.9438581,
      "lng": 7.3623874,
      "name": "Ikwueke West, Ukwa East, Abia",
      "source": "temikeezy_nigeria_geojson_data",
      "state": "Abia"
    },
    {
      "aliases": [
        "Ikwun Ihechiowa",
        "Ikwun Ihechiowa Ward",
        "Ikwun Ihechiowa, Abia State",
        "Ikwun Ihechiowa, Arochukwu"
      ],
      "hotspot": false,
      "kind": "ward",
      "lat": 5.4586072,
      "lng": 7.8550814,
      "name": "Ikwun Ihechiowa, Arochukwu, Abia",
      "source": "temikeezy_nigeria_geojson_data",
      "state": "Abia"
    },
    {
      "aliases": [
        "Ikwuorie",
        "Ikwuorie Ward",
        "Ikwuorie, Abia State",
        "Ikwuorie, Ukwa East"
      ],
      "hotspot": false,
      "kind": "ward",
      "lat": 4.9384428,
      "lng": 7.3219185,
      "name": "Ikwuorie, Ukwa East, Abia",
      "source": "temikeezy_nigeria_geojson_data",
      "state": "Abia"
    },
    {
      "aliases": [
        "Ikwuriator East",
        "Ikwuriator East Ward",
        "Ikwuriator East, Abia State",
        "Ikwuriator East, Ukwa East"
      ],
      "hotspot": false,
      "kind": "ward",
      "lat": 4.9348221,
      "lng": 7.4576335,
      "name": "Ikwuriator East, Ukwa East, Abia",
      "source": "temikeezy_nigeria_geojson_data",
      "state": "Abia"
    },
    {
      "aliases": [
        "Ikwuriator West",
        "Ikwuriator West Ward",
        "Ikwuriator West, Abia State",
        "Ikwuriator West, Ukwa East"
      ],
      "hotspot": false,
      "kind": "ward",
      "lat": 4.9613548,
      "lng": 7.4499848,
      "name": "Ikwuriator West, Ukwa East, Abia",
      "source": "temikeezy_nigeria_geojson_data",
      "state": "Abia"
    },
    {
      "aliases": [
        "Imenyi",
        "Imenyi Ward",
        "Imenyi, Abia State",
        "Imenyi, Isuikwuato"
      ],
      "hotspot": false,
      "kind": "ward",
      "lat": 5.6893941,
      "lng": 7.5190161,
      "name": "Imenyi, Isuikwuato, Abia",
      "source": "temikeezy_nigeria_geojson_data",
      "state": "Abia"
    },
    {
      "aliases": [
        "Industrial Area",
        "Industrial Area Ward",
        "Industrial Area, Aba North",
        "Industrial Area, Abia State"
      ],
      "hotspot": false,
      "kind": "ward",
      "lat": 5.1142815,
      "lng": 7.3718607,
      "name": "Industrial Area, Aba North, Abia",
      "source": "temikeezy_nigeria_geojson_data",
      "state": "Abia"
    },
    {
      "aliases": [
        "Ipu East",
        "Ipu East Ward",
        "Ipu East, Abia State",
        "Ipu East, Ukwa West"
      ],
      "hotspot": false,
      "kind": "ward",
      "lat": 4.905399,
      "lng": 7.1772397,
      "name": "Ipu East, Ukwa West, Abia",
      "source": "temikeezy_nigeria_geojson_data",
      "state": "Abia"
    },
    {
      "aliases": [
        "Ipu South",
        "Ipu South Ward",
        "Ipu South, Abia State",
        "Ipu South, Ukwa West"
      ],
      "hotspot": false,
      "kind": "ward",
      "lat": 4.9440447,
      "lng": 7.2958653,
      "name": "Ipu South, Ukwa West, Abia",
      "source": "temikeezy_nigeria_geojson_data",
      "state": "Abia"
    },
    {
      "aliases": [
        "Ipu West",
        "Ipu West Ward",
        "Ipu West, Abia State",
        "Ipu West, Ukwa West"
      ],
      "hotspot": false,
      "kind": "ward",
      "lat": 4.9535933,
      "lng": 7.2543442,
      "name": "Ipu West, Ukwa West, Abia",
      "source": "temikeezy_nigeria_geojson_data",
      "state": "Abia"
    },
    {
      "aliases": [
        "Isiala Amawu",
        "Isiala Amawu Ward",
        "Isiala Amawu, Abia State",
        "Isiala Amawu, Isuikwuato"
      ],
      "hotspot": false,
      "kind": "ward",
      "lat": 5.7325568,
      "lng": 7.4901351,
      "name": "Isiala Amawu, Isuikwuato, Abia",
      "source": "temikeezy_nigeria_geojson_data",
      "state": "Abia"
    },
    {
      "aliases": [
        "Isiala Nsulu",
        "Isiala Nsulu Ward",
        "Isiala Nsulu, Abia State",
        "Isiala Nsulu, Isiala Ngwa North"
      ],
      "hotspot": false,
      "kind": "ward",
      "lat": 5.3535522,
      "lng": 7.4309832,
      "name": "Isiala Nsulu, Isiala Ngwa North, Abia",
      "source": "temikeezy_nigeria_geojson_data",
      "state": "Abia"
    },
    {
      "aliases": [
        "Isiama Ohafia",
        "Isiama Ohafia Ward",
        "Isiama Ohafia, Abia State",
        "Isiama Ohafia, Ohafia"
      ],
      "hotspot": false,
      "kind": "ward",
      "lat": 5.6622648,
      "lng": 7.7916826,
      "name": "Isiama Ohafia, Ohafia, Abia",
      "source": "temikeezy_nigeria_geojson_data",
      "state": "Abia"
    },
    {
      "aliases": [
        "Isingwu",
        "Isingwu Ward",
        "Isingwu, Abia State",
        "Isingwu, Umuahia North"
      ],
      "hotspot": false,
      "kind": "ward",
      "lat": 5.5454425,
      "lng": 7.4313055,
      "name": "Isingwu, Umuahia North, Abia",
      "source": "temikeezy_nigeria_geojson_data",
      "state": "Abia"
    },
    {
      "aliases": [
        "Isu Amawu",
        "Isu Amawu Ward",
        "Isu Amawu, Abia State",
        "Isu Amawu, Isuikwuato"
      ],
      "hotspot": false,
      "kind": "ward",
      "lat": 5.7036653,
      "lng": 7.4508171,
      "name": "Isu Amawu, Isuikwuato, Abia",
      "source": "temikeezy_nigeria_geojson_data",
      "state": "Abia"
    },
    {
      "aliases": [
        "Isu",
        "Isu Ward",
        "Isu, Abia State",
        "Isu, Arochukwu"
      ],
      "hotspot": false,
      "kind": "ward",
      "lat": 5.3802748,
      "lng": 7.9402823,
      "name": "Isu, Arochukwu, Abia",
      "source": "temikeezy_nigeria_geojson_data",
      "state": "Abia"
    },
    {
      "aliases": [
        "Item A",
        "Item A Ward",
        "Item A, Abia State",
        "Item A, Bende"
      ],
      "hotspot": false,
      "kind": "ward",
      "lat": 5.7580775,
      "lng": 7.6693399,
      "name": "Item A, Bende, Abia",
      "source": "temikeezy_nigeria_geojson_data",
      "state": "Abia"
    },
    {
      "aliases": [
        "Item B",
        "Item B Ward",
        "Item B, Abia State",
        "Item B, Bende"
      ],
      "hotspot": false,
      "kind": "ward",
      "lat": 5.7610348,
      "lng": 7.6397274,
      "name": "Item B, Bende, Abia",
      "source": "temikeezy_nigeria_geojson_data",
      "state": "Abia"
    },
    {
      "aliases": [
        "Item C",
        "Item C Ward",
        "Item C, Abia State",
        "Item C, Bende"
      ],
      "hotspot": false,
      "kind": "ward",
      "lat": 5.8057157,
      "lng": 7.656796,
      "name": "Item C, Bende, Abia",
      "source": "temikeezy_nigeria_geojson_data",
      "state": "Abia"
    },
    {
      "aliases": [
        "Itumbauzo",
        "Itumbauzo Ward",
        "Itumbauzo, Abia State",
        "Itumbauzo, Bende"
      ],
      "hotspot": false,
      "kind": "ward",
      "lat": 5.4686609,
      "lng": 7.61586,
      "name": "Itumbauzo, Bende, Abia",
      "source": "temikeezy_nigeria_geojson_data",
      "state": "Abia"
    },
    {
      "aliases": [
        "Maboko Amairi",
        "Maboko Amairi Ward",
        "Maboko Amairi, Abia State",
        "Maboko Amairi, Oboma Ngwa"
      ],
      "hotspot": false,
      "kind": "ward",
      "lat": 5.177999,
      "lng": 7.4116025,
      "name": "Maboko Amairi, Oboma Ngwa, Abia",
      "source": "temikeezy_nigeria_geojson_data",
      "state": "Abia"
    },
    {
      "aliases": [
        "Mbala/Achara",
        "Mbala/Achara Ward",
        "Mbala/Achara, Abia State",
        "Mbala/Achara, Umu-Nneochi"
      ],
      "hotspot": false,
      "kind": "ward",
      "lat": 5.9611483,
      "lng": 7.3616649,
      "name": "Mbala/Achara, Umu-Nneochi, Abia",
      "source": "temikeezy_nigeria_geojson_data",
      "state": "Abia"
    },
    {
      "aliases": [
        "Mbawsi / Umuomainta",
        "Mbawsi / Umuomainta Ward",
        "Mbawsi / Umuomainta, Abia State",
        "Mbawsi / Umuomainta, Isiala Ngwa North"
      ],
      "hotspot": false,
      "kind": "ward",
      "lat": 5.3872859,
      "lng": 7.4259563,
      "name": "Mbawsi / Umuomainta, Isiala Ngwa North, Abia",
      "source": "temikeezy_nigeria_geojson_data",
      "state": "Abia"
    },
    {
      "aliases": [
        "Mbutu Ngwa",
        "Mbutu Ngwa Ward",
        "Mbutu Ngwa, Abia State",
        "Mbutu Ngwa, Isiala Ngwa South"
      ],
      "hotspot": false,
      "kind": "ward",
      "lat": 5.3048281,
      "lng": 7.3531056,
      "name": "Mbutu Ngwa, Isiala Ngwa South, Abia",
      "source": "temikeezy_nigeria_geojson_data",
      "state": "Abia"
    },
    {
      "aliases": [
        "Mbutu Ukwu",
        "Mbutu Ukwu Ward",
        "Mbutu Ukwu, Abia State",
        "Mbutu Ukwu, Isiala Ngwa South"
      ],
      "hotspot": false,
      "kind": "ward",
      "lat": 5.3084338,
      "lng": 7.3109438,
      "name": "Mbutu Ukwu, Isiala Ngwa South, Abia",
      "source": "temikeezy_nigeria_geojson_data",
      "state": "Abia"
    },
    {
      "aliases": [
        "Mgboko Itungwa",
        "Mgboko Itungwa Ward",
        "Mgboko Itungwa, Abia State",
        "Mgboko Itungwa, Oboma Ngwa"
      ],
      "hotspot": false,
      "kind": "ward",
      "lat": 5.1945554,
      "lng": 7.4802835,
      "name": "Mgboko Itungwa, Oboma Ngwa, Abia",
      "source": "temikeezy_nigeria_geojson_data",
      "state": "Abia"
    },
    {
      "aliases": [
        "Mgboko Umuanunu",
        "Mgboko Umuanunu Ward",
        "Mgboko Umuanunu, Abia State",
        "Mgboko Umuanunu, Oboma Ngwa"
      ],
      "hotspot": false,
      "kind": "ward",
      "lat": 5.2508645,
      "lng": 7.507639,
      "name": "Mgboko Umuanunu, Oboma Ngwa, Abia",
      "source": "temikeezy_nigeria_geojson_data",
      "state": "Abia"
    },
    {
      "aliases": [
        "Mosque",
        "Mosque Ward",
        "Mosque, Aba South",
        "Mosque, Abia State"
      ],
      "hotspot": false,
      "kind": "ward",
      "lat": 5.0893685,
      "lng": 7.3604891,
      "name": "Mosque, Aba South, Abia",
      "source": "temikeezy_nigeria_geojson_data",
      "state": "Abia"
    },
    {
      "aliases": [
        "Ndi Agbo Nkporo",
        "Ndi Agbo Nkporo Ward",
        "Ndi Agbo Nkporo, Abia State",
        "Ndi Agbo Nkporo, Ohafia"
      ],
      "hotspot": false,
      "kind": "ward",
      "lat": 5.805415,
      "lng": 7.7234033,
      "name": "Ndi Agbo Nkporo, Ohafia, Abia",
      "source": "temikeezy_nigeria_geojson_data",
      "state": "Abia"
    },
    {
      "aliases": [
        "Ndi Elu Nkporo",
        "Ndi Elu Nkporo Ward",
        "Ndi Elu Nkporo, Abia State",
        "Ndi Elu Nkporo, Ohafia"
      ],
      "hotspot": false,
      "kind": "ward",
      "lat": 5.7683923,
      "lng": 7.728778,
      "name": "Ndi Elu Nkporo, Ohafia, Abia",
      "source": "temikeezy_nigeria_geojson_data",
      "state": "Abia"
    },
    {
      "aliases": [
        "Ndi Etiti Nkporo",
        "Ndi Etiti Nkporo Ward",
        "Ndi Etiti Nkporo, Abia State",
        "Ndi Etiti Nkporo, Ohafia"
      ],
      "hotspot": false,
      "kind": "ward",
      "lat": 5.7759584,
      "lng": 7.7806165,
      "name": "Ndi Etiti Nkporo, Ohafia, Abia",
      "source": "temikeezy_nigeria_geojson_data",
      "state": "Abia"
    },
    {
      "aliases": [
        "Ndiarata / Amairinabua",
        "Ndiarata / Amairinabua Ward",
        "Ndiarata / Amairinabua, Abia State",
        "Ndiarata / Amairinabua, Oboma Ngwa"
      ],
      "hotspot": false,
      "kind": "ward",
      "lat": 5.133615,
      "lng": 7.5043865,
      "name": "Ndiarata / Amairinabua, Oboma Ngwa, Abia",
      "source": "temikeezy_nigeria_geojson_data",
      "state": "Abia"
    },
    {
      "aliases": [
        "Ndiawa/Umuelem/I",
        "Ndiawa/Umuelem/I Ward",
        "Ndiawa/Umuelem/I, Abia State",
        "Ndiawa/Umuelem/I, Umu-Nneochi"
      ],
      "hotspot": false,
      "kind": "ward",
      "lat": 5.9767703,
      "lng": 7.4078885,
      "name": "Ndiawa/Umuelem/I, Umu-Nneochi, Abia",
      "source": "temikeezy_nigeria_geojson_data",
      "state": "Abia"
    },
    {
      "aliases": [
        "Ndume",
        "Ndume Ward",
        "Ndume, Abia State",
        "Ndume, Umuahia North"
      ],
      "hotspot": false,
      "kind": "ward",
      "lat": 5.5085055,
      "lng": 7.5397603,
      "name": "Ndume, Umuahia North, Abia",
      "source": "temikeezy_nigeria_geojson_data",
      "state": "Abia"
    },
    {
      "aliases": [
        "Ngwa Ukwu I",
        "Ngwa Ukwu I Ward",
        "Ngwa Ukwu I, Abia State",
        "Ngwa Ukwu I, Isiala Ngwa North"
      ],
      "hotspot": false,
      "kind": "ward",
      "lat": 5.3922435,
      "lng": 7.3686775,
      "name": "Ngwa Ukwu I, Isiala Ngwa North, Abia",
      "source": "temikeezy_nigeria_geojson_data",
      "state": "Abia"
    },
    {
      "aliases": [
        "Ngwa Ukwu II",
        "Ngwa Ukwu II Ward",
        "Ngwa Ukwu II, Abia State",
        "Ngwa Ukwu II, Isiala Ngwa North"
      ],
      "hotspot": false,
      "kind": "ward",
      "lat": 5.3673895,
      "lng": 7.3441235,
      "name": "Ngwa Ukwu II, Isiala Ngwa North, Abia",
      "source": "temikeezy_nigeria_geojson_data",
      "state": "Abia"
    },
    {
      "aliases": [
        "Ngwa",
        "Ngwa Ward",
        "Ngwa, Aba South",
        "Ngwa, Abia State"
      ],
      "hotspot": false,
      "kind": "ward",
      "lat": 5.0627599,
      "lng": 7.3546286,
      "name": "Ngwa, Aba South, Abia",
      "source": "temikeezy_nigeria_geojson_data",
      "state": "Abia"
    },
    {
      "aliases": [
        "Ngwaobi",
        "Ngwaobi Ward",
        "Ngwaobi, Abia State",
        "Ngwaobi, Isiala Ngwa South"
      ],
      "hotspot": false,
      "kind": "ward",
      "lat": 5.2763923,
      "lng": 7.3254174,
      "name": "Ngwaobi, Isiala Ngwa South, Abia",
      "source": "temikeezy_nigeria_geojson_data",
      "state": "Abia"
    },
    {
      "aliases": [
        "Nkporobe/Ohuru",
        "Nkporobe/Ohuru Ward",
        "Nkporobe/Ohuru, Abia State",
        "Nkporobe/Ohuru, Ukwa East"
      ],
      "hotspot": false,
      "kind": "ward",
      "lat": 4.9537021,
      "lng": 7.4125924,
      "name": "Nkporobe/Ohuru, Ukwa East, Abia",
      "source": "temikeezy_nigeria_geojson_data",
      "state": "Abia"
    },
    {
      "aliases": [
        "Nkwoachara",
        "Nkwoachara Ward",
        "Nkwoachara, Abia State",
        "Nkwoachara, Umuahia North"
      ],
      "hotspot": false,
      "kind": "ward",
      "lat": 5.5756988,
      "lng": 7.4548828,
      "name": "Nkwoachara, Umuahia North, Abia",
      "source": "temikeezy_nigeria_geojson_data",
      "state": "Abia"
    },
    {
      "aliases": [
        "Nkwoegwu",
        "Nkwoegwu Ward",
        "Nkwoegwu, Abia State",
        "Nkwoegwu, Umuahia North"
      ],
      "hotspot": false,
      "kind": "ward",
      "lat": 5.5906107,
      "lng": 7.4787555,
      "name": "Nkwoegwu, Umuahia North, Abia",
      "source": "temikeezy_nigeria_geojson_data",
      "state": "Abia"
    },
    {
      "aliases": [
        "Nsirimo",
        "Nsirimo Ward",
        "Nsirimo, Abia State",
        "Nsirimo, Umuahia South"
      ],
      "hotspot": false,
      "kind": "ward",
      "lat": 5.4748354,
      "lng": 7.4380416,
      "name": "Nsirimo, Umuahia South, Abia",
      "source": "temikeezy_nigeria_geojson_data",
      "state": "Abia"
    },
    {
      "aliases": [
        "Ntighauzo Amairi",
        "Ntighauzo Amairi Ward",
        "Ntighauzo Amairi, Abia State",
        "Ntighauzo Amairi, Oboma Ngwa"
      ],
      "hotspot": false,
      "kind": "ward",
      "lat": 5.0637715,
      "lng": 7.4676203,
      "name": "Ntighauzo Amairi, Oboma Ngwa, Abia",
      "source": "temikeezy_nigeria_geojson_data",
      "state": "Abia"
    },
    {
      "aliases": [
        "Obinolu/Obiagu/La",
        "Obinolu/Obiagu/La Ward",
        "Obinolu/Obiagu/La, Abia State",
        "Obinolu/Obiagu/La, Umu-Nneochi"
      ],
      "hotspot": false,
      "kind": "ward",
      "lat": 5.9180837,
      "lng": 7.3267124,
      "name": "Obinolu/Obiagu/La, Umu-Nneochi, Abia",
      "source": "temikeezy_nigeria_geojson_data",
      "state": "Abia"
    },
    {
      "aliases": [
        "Obohia",
        "Obohia Ward",
        "Obohia, Abia State",
        "Obohia, Ukwa East"
      ],
      "hotspot": false,
      "kind": "ward",
      "lat": 4.8796555,
      "lng": 7.4528089,
      "name": "Obohia, Ukwa East, Abia",
      "source": "temikeezy_nigeria_geojson_data",
      "state": "Abia"
    },
    {
      "aliases": [
        "Obokwe",
        "Obokwe Ward",
        "Obokwe, Abia State",
        "Obokwe, Ukwa West"
      ],
      "hotspot": false,
      "kind": "ward",
      "lat": 5.0200858,
      "lng": 7.2360757,
      "name": "Obokwe, Ukwa West, Abia",
      "source": "temikeezy_nigeria_geojson_data",
      "state": "Abia"
    },
    {
      "aliases": [
        "Oboro I",
        "Oboro I Ward",
        "Oboro I, Abia State",
        "Oboro I, Ikwuano"
      ],
      "hotspot": false,
      "kind": "ward",
      "lat": 5.4660025,
      "lng": 7.5542825,
      "name": "Oboro I, Ikwuano, Abia",
      "source": "temikeezy_nigeria_geojson_data",
      "state": "Abia"
    },
    {
      "aliases": [
        "Oboro II",
        "Oboro II Ward",
        "Oboro II, Abia State",
        "Oboro II, Ikwuano"
      ],
      "hotspot": false,
      "kind": "ward",
      "lat": 5.4493458,
      "lng": 7.5497616,
      "name": "Oboro II, Ikwuano, Abia",
      "source": "temikeezy_nigeria_geojson_data",
      "state": "Abia"
    },
    {
      "aliases": [
        "Oboro III",
        "Oboro III Ward",
        "Oboro III, Abia State",
        "Oboro III, Ikwuano"
      ],
      "hotspot": false,
      "kind": "ward",
      "lat": 5.3995744,
      "lng": 7.5366652,
      "name": "Oboro III, Ikwuano, Abia",
      "source": "temikeezy_nigeria_geojson_data",
      "state": "Abia"
    },
    {
      "aliases": [
        "Oboro IV",
        "Oboro IV Ward",
        "Oboro IV, Abia State",
        "Oboro IV, Ikwuano"
      ],
      "hotspot": false,
      "kind": "ward",
      "lat": 5.4100846,
      "lng": 7.5720962,
      "name": "Oboro IV, Ikwuano, Abia",
      "source": "temikeezy_nigeria_geojson_data",
      "state": "Abia"
    },
    {
      "aliases": [
        "Obuzor",
        "Obuzor Ward",
        "Obuzor, Abia State",
        "Obuzor, Ukwa West"
      ],
      "hotspot": false,
      "kind": "ward",
      "lat": 4.9642496,
      "lng": 7.2019856,
      "name": "Obuzor, Ukwa West, Abia",
      "source": "temikeezy_nigeria_geojson_data",
      "state": "Abia"
    },
    {
      "aliases": [
        "Ogbor I",
        "Ogbor I Ward",
        "Ogbor I, Aba North",
        "Ogbor I, Abia State"
      ],
      "hotspot": false,
      "kind": "ward",
      "lat": 5.1038867,
      "lng": 7.3821652,
      "name": "Ogbor I, Aba North, Abia",
      "source": "temikeezy_nigeria_geojson_data",
      "state": "Abia"
    },
    {
      "aliases": [
        "Ogbor II",
        "Ogbor II Ward",
        "Ogbor II, Aba North",
        "Ogbor II, Abia State"
      ],
      "hotspot": false,
      "kind": "ward",
      "lat": 5.0773575,
      "lng": 7.3797494,
      "name": "Ogbor II, Aba North, Abia",
      "source": "temikeezy_nigeria_geojson_data",
      "state": "Abia"
    },
    {
      "aliases": [
        "Ogunduasa",
        "Ogunduasa Ward",
        "Ogunduasa, Abia State",
        "Ogunduasa, Isuikwuato"
      ],
      "hotspot": false,
      "kind": "ward",
      "lat": 5.7385077,
      "lng": 7.4291723,
      "name": "Ogunduasa, Isuikwuato, Abia",
      "source": "temikeezy_nigeria_geojson_data",
      "state": "Abia"
    },
    {
      "aliases": [
        "Ogwe",
        "Ogwe Ward",
        "Ogwe, Abia State",
        "Ogwe, Ukwa West"
      ],
      "hotspot": false,
      "kind": "ward",
      "lat": 5.005595,
      "lng": 7.2688876,
      "name": "Ogwe, Ukwa West, Abia",
      "source": "temikeezy_nigeria_geojson_data",
      "state": "Abia"
    },
    {
      "aliases": [
        "Ohaeke",
        "Ohaeke Ward",
        "Ohaeke, Abia State",
        "Ohaeke, Arochukwu"
      ],
      "hotspot": false,
      "kind": "ward",
      "lat": 5.5490059,
      "lng": 7.6892438,
      "name": "Ohaeke, Arochukwu, Abia",
      "source": "temikeezy_nigeria_geojson_data",
      "state": "Abia"
    },
    {
      "aliases": [
        "Ohafor I",
        "Ohafor I Ward",
        "Ohafor I, Abia State",
        "Ohafor I, Arochukwu"
      ],
      "hotspot": false,
      "kind": "ward",
      "lat": 5.5940343,
      "lng": 7.7256316,
      "name": "Ohafor I, Arochukwu, Abia",
      "source": "temikeezy_nigeria_geojson_data",
      "state": "Abia"
    },
    {
      "aliases": [
        "Ohafor II",
        "Ohafor II Ward",
        "Ohafor II, Abia State",
        "Ohafor II, Arochukwu"
      ],
      "hotspot": false,
      "kind": "ward",
      "lat": 5.6068597,
      "lng": 7.6804627,
      "name": "Ohafor II, Arochukwu, Abia",
      "source": "temikeezy_nigeria_geojson_data",
      "state": "Abia"
    },
    {
      "aliases": [
        "Ohafor Ohafia",
        "Ohafor Ohafia Ward",
        "Ohafor Ohafia, Abia State",
        "Ohafor Ohafia, Ohafia"
      ],
      "hotspot": false,
      "kind": "ward",
      "lat": 5.6017154,
      "lng": 7.86455,
      "name": "Ohafor Ohafia, Ohafia, Abia",
      "source": "temikeezy_nigeria_geojson_data",
      "state": "Abia"
    },
    {
      "aliases": [
        "Ohazu I",
        "Ohazu I Ward",
        "Ohazu I, Aba South",
        "Ohazu I, Abia State"
      ],
      "hotspot": false,
      "kind": "ward",
      "lat": 5.0784864,
      "lng": 7.3715471,
      "name": "Ohazu I, Aba South, Abia",
      "source": "temikeezy_nigeria_geojson_data",
      "state": "Abia"
    },
    {
      "aliases": [
        "Ohazu II",
        "Ohazu II Ward",
        "Ohazu II, Aba South",
        "Ohazu II, Abia State"
      ],
      "hotspot": false,
      "kind": "ward",
      "lat": 5.0591178,
      "lng": 7.3687213,
      "name": "Ohazu II, Aba South, Abia",
      "source": "temikeezy_nigeria_geojson_data",
      "state": "Abia"
    },
    {
      "aliases": [
        "Ohiaocha",
        "Ohiaocha Ward",
        "Ohiaocha, Abia State",
        "Ohiaocha, Umuahia South"
      ],
      "hotspot": false,
      "kind": "ward",
      "lat": 5.4530174,
      "lng": 7.4933872,
      "name": "Ohiaocha, Umuahia South, Abia",
      "source": "temikeezy_nigeria_geojson_data",
      "state": "Abia"
    },
    {
      "aliases": [
        "Okamu Ohafia",
        "Okamu Ohafia Ward",
        "Okamu Ohafia, Abia State",
        "Okamu Ohafia, Ohafia"
      ],
      "hotspot": false,
      "kind": "ward",
      "lat": 5.6627164,
      "lng": 7.8708356,
      "name": "Okamu Ohafia, Ohafia, Abia",
      "source": "temikeezy_nigeria_geojson_data",
      "state": "Abia"
    },
    {
      "aliases": [
        "Okpor - Umuobo",
        "Okpor - Umuobo Ward",
        "Okpor - Umuobo, Abia State",
        "Okpor - Umuobo, Osisioma"
      ],
      "hotspot": false,
      "kind": "ward",
      "lat": 5.1852649,
      "lng": 7.3541889,
      "name": "Okpor - Umuobo, Osisioma, Abia",
      "source": "temikeezy_nigeria_geojson_data",
      "state": "Abia"
    },
    {
      "aliases": [
        "Okporo Ahaba",
        "Okporo Ahaba Ward",
        "Okporo Ahaba, Abia State",
        "Okporo Ahaba, Isiala Ngwa South"
      ],
      "hotspot": false,
      "kind": "ward",
      "lat": 5.2257512,
      "lng": 7.3819002,
      "name": "Okporo Ahaba, Isiala Ngwa South, Abia",
      "source": "temikeezy_nigeria_geojson_data",
      "state": "Abia"
    },
    {
      "aliases": [
        "Old Aba Gra",
        "Old Aba Gra Ward",
        "Old Aba Gra, Aba North",
        "Old Aba Gra, Abia State"
      ],
      "hotspot": false,
      "kind": "ward",
      "lat": 5.1203865,
      "lng": 7.3618243,
      "name": "Old Aba Gra, Aba North, Abia",
      "source": "temikeezy_nigeria_geojson_data",
      "state": "Abia"
    },
    {
      "aliases": [
        "Old Umuahia",
        "Old Umuahia Ward",
        "Old Umuahia, Abia State",
        "Old Umuahia, Umuahia South"
      ],
      "hotspot": false,
      "kind": "ward",
      "lat": 5.4390867,
      "lng": 7.4623631,
      "name": "Old Umuahia, Umuahia South, Abia",
      "source": "temikeezy_nigeria_geojson_data",
      "state": "Abia"
    },
    {
      "aliases": [
        "Oloko I",
        "Oloko I Ward",
        "Oloko I, Abia State",
        "Oloko I, Ikwuano"
      ],
      "hotspot": false,
      "kind": "ward",
      "lat": 5.3528206,
      "lng": 7.5349284,
      "name": "Oloko I, Ikwuano, Abia",
      "source": "temikeezy_nigeria_geojson_data",
      "state": "Abia"
    },
    {
      "aliases": [
        "Oloko II",
        "Oloko II Ward",
        "Oloko II, Abia State",
        "Oloko II, Ikwuano"
      ],
      "hotspot": false,
      "kind": "ward",
      "lat": 5.3334857,
      "lng": 7.5717672,
      "name": "Oloko II, Ikwuano, Abia",
      "source": "temikeezy_nigeria_geojson_data",
      "state": "Abia"
    },
    {
      "aliases": [
        "Omaegwu",
        "Omaegwu Ward",
        "Omaegwu, Abia State",
        "Omaegwu, Umuahia South"
      ],
      "hotspot": false,
      "kind": "ward",
      "lat": 5.4871943,
      "lng": 7.4039402,
      "name": "Omaegwu, Umuahia South, Abia",
      "source": "temikeezy_nigeria_geojson_data",
      "state": "Abia"
    },
    {
      "aliases": [
        "Omoba",
        "Omoba Ward",
        "Omoba, Abia State",
        "Omoba, Isiala Ngwa South"
      ],
      "hotspot": false,
      "kind": "ward",
      "lat": 5.2410718,
      "lng": 7.4129659,
      "name": "Omoba, Isiala Ngwa South, Abia",
      "source": "temikeezy_nigeria_geojson_data",
      "state": "Abia"
    },
    {
      "aliases": [
        "Oso - Okwa",
        "Oso - Okwa Ward",
        "Oso - Okwa, Abia State",
        "Oso - Okwa, Osisioma"
      ],
      "hotspot": false,
      "kind": "ward",
      "lat": 5.1695857,
      "lng": 7.3194733,
      "name": "Oso - Okwa, Osisioma, Abia",
      "source": "temikeezy_nigeria_geojson_data",
      "state": "Abia"
    },
    {
      "aliases": [
        "Osusu I",
        "Osusu I Ward",
        "Osusu I, Aba North",
        "Osusu I, Abia State"
      ],
      "hotspot": false,
      "kind": "ward",
      "lat": 5.1209927,
      "lng": 7.3471489,
      "name": "Osusu I, Aba North, Abia",
      "source": "temikeezy_nigeria_geojson_data",
      "state": "Abia"
    },
    {
      "aliases": [
        "Osusu II",
        "Osusu II Ward",
        "Osusu II, Aba North",
        "Osusu II, Abia State"
      ],
      "hotspot": false,
      "kind": "ward",
      "lat": 5.1204635,
      "lng": 7.353904,
      "name": "Osusu II, Aba North, Abia",
      "source": "temikeezy_nigeria_geojson_data",
      "state": "Abia"
    },
    {
      "aliases": [
        "Ovukwu",
        "Ovukwu Ward",
        "Ovukwu, Abia State",
        "Ovukwu, Arochukwu"
      ],
      "hotspot": false,
      "kind": "ward",
      "lat": 5.4786692,
      "lng": 7.7925762,
      "name": "Ovukwu, Arochukwu, Abia",
      "source": "temikeezy_nigeria_geojson_data",
      "state": "Abia"
    },
    {
      "aliases": [
        "Ovungwu",
        "Ovungwu Ward",
        "Ovungwu, Abia State",
        "Ovungwu, Isiala Ngwa South"
      ],
      "hotspot": false,
      "kind": "ward",
      "lat": 5.2323834,
      "lng": 7.4383591,
      "name": "Ovungwu, Isiala Ngwa South, Abia",
      "source": "temikeezy_nigeria_geojson_data",
      "state": "Abia"
    },
    {
      "aliases": [
        "Ovuokwu",
        "Ovuokwu Ward",
        "Ovuokwu, Abia State",
        "Ovuokwu, Isiala Ngwa South"
      ],
      "hotspot": false,
      "kind": "ward",
      "lat": 5.2725813,
      "lng": 7.3941947,
      "name": "Ovuokwu, Isiala Ngwa South, Abia",
      "source": "temikeezy_nigeria_geojson_data",
      "state": "Abia"
    },
    {
      "aliases": [
        "Ozaa Ukwu",
        "Ozaa Ukwu Ward",
        "Ozaa Ukwu, Abia State",
        "Ozaa Ukwu, Ukwa West"
      ],
      "hotspot": false,
      "kind": "ward",
      "lat": 4.8978197,
      "lng": 7.287909,
      "name": "Ozaa Ukwu, Ukwa West, Abia",
      "source": "temikeezy_nigeria_geojson_data",
      "state": "Abia"
    },
    {
      "aliases": [
        "Ozaa West",
        "Ozaa West Ward",
        "Ozaa West, Abia State",
        "Ozaa West, Ukwa West"
      ],
      "hotspot": false,
      "kind": "ward",
      "lat": 4.928559,
      "lng": 7.2735369,
      "name": "Ozaa West, Ukwa West, Abia",
      "source": "temikeezy_nigeria_geojson_data",
      "state": "Abia"
    },
    {
      "aliases": [
        "Ozuitem",
        "Ozuitem Ward",
        "Ozuitem, Abia State",
        "Ozuitem, Bende"
      ],
      "hotspot": false,
      "kind": "ward",
      "lat": 5.6109209,
      "lng": 7.6136688,
      "name": "Ozuitem, Bende, Abia",
      "source": "temikeezy_nigeria_geojson_data",
      "state": "Abia"
    },
    {
      "aliases": [
        "St. Eugenes by Okigwe Rd.",
        "St. Eugenes by Okigwe Rd. Ward",
        "St. Eugenes by Okigwe Rd., Aba North",
        "St. Eugenes by Okigwe Rd., Abia State"
      ],
      "hotspot": false,
      "kind": "ward",
      "lat": 5.1141351,
      "lng": 7.3533164,
      "name": "St. Eugenes by Okigwe Rd., Aba North, Abia",
      "source": "temikeezy_nigeria_geojson_data",
      "state": "Abia"
    },
    {
      "aliases": [
        "Ubahu/Akawa/Arokpa",
        "Ubahu/Akawa/Arokpa Ward",
        "Ubahu/Akawa/Arokpa, Abia State",
        "Ubahu/Akawa/Arokpa, Umu-Nneochi"
      ],
      "hotspot": false,
      "kind": "ward",
      "lat": 5.9248112,
      "lng": 7.4825359,
      "name": "Ubahu/Akawa/Arokpa, Umu-Nneochi, Abia",
      "source": "temikeezy_nigeria_geojson_data",
      "state": "Abia"
    },
    {
      "aliases": [
        "Ubakala 'A'",
        "Ubakala 'A' Ward",
        "Ubakala 'A', Abia State",
        "Ubakala 'A', Umuahia South"
      ],
      "hotspot": false,
      "kind": "ward",
      "lat": 5.4439397,
      "lng": 7.3983629,
      "name": "Ubakala 'A', Umuahia South, Abia",
      "source": "temikeezy_nigeria_geojson_data",
      "state": "Abia"
    },
    {
      "aliases": [
        "Ubakala 'B'",
        "Ubakala 'B' Ward",
        "Ubakala 'B', Abia State",
        "Ubakala 'B', Umuahia South"
      ],
      "hotspot": false,
      "kind": "ward",
      "lat": 5.4612585,
      "lng": 7.4158097,
      "name": "Ubakala 'B', Umuahia South, Abia",
      "source": "temikeezy_nigeria_geojson_data",
      "state": "Abia"
    },
    {
      "aliases": [
        "Ugwueke/Ezeukwu",
        "Ugwueke/Ezeukwu Ward",
        "Ugwueke/Ezeukwu, Abia State",
        "Ugwueke/Ezeukwu, Bende"
      ],
      "hotspot": false,
      "kind": "ward",
      "lat": 5.7960928,
      "lng": 7.581136,
      "name": "Ugwueke/Ezeukwu, Bende, Abia",
      "source": "temikeezy_nigeria_geojson_data",
      "state": "Abia"
    },
    {
      "aliases": [
        "Umu - Imenyi",
        "Umu - Imenyi Ward",
        "Umu - Imenyi, Abia State",
        "Umu - Imenyi, Bende"
      ],
      "hotspot": false,
      "kind": "ward",
      "lat": 5.6322875,
      "lng": 7.5058829,
      "name": "Umu - Imenyi, Bende, Abia",
      "source": "temikeezy_nigeria_geojson_data",
      "state": "Abia"
    },
    {
      "aliases": [
        "Umuahia Urban I",
        "Umuahia Urban I Ward",
        "Umuahia Urban I, Abia State",
        "Umuahia Urban I, Umuahia North"
      ],
      "hotspot": false,
      "kind": "ward",
      "lat": 5.5067829,
      "lng": 7.4726679,
      "name": "Umuahia Urban I, Umuahia North, Abia",
      "source": "temikeezy_nigeria_geojson_data",
      "state": "Abia"
    },
    {
      "aliases": [
        "Umuahia Urban II",
        "Umuahia Urban II Ward",
        "Umuahia Urban II, Abia State",
        "Umuahia Urban II, Umuahia North"
      ],
      "hotspot": false,
      "kind": "ward",
      "lat": 5.5423262,
      "lng": 7.4958934,
      "name": "Umuahia Urban II, Umuahia North, Abia",
      "source": "temikeezy_nigeria_geojson_data",
      "state": "Abia"
    },
    {
      "aliases": [
        "Umuahia Urban III",
        "Umuahia Urban III Ward",
        "Umuahia Urban III, Abia State",
        "Umuahia Urban III, Umuahia North"
      ],
      "hotspot": false,
      "kind": "ward",
      "lat": 5.5677265,
      "lng": 7.4709782,
      "name": "Umuahia Urban III, Umuahia North, Abia",
      "source": "temikeezy_nigeria_geojson_data",
      "state": "Abia"
    },
    {
      "aliases": [
        "Umuaku",
        "Umuaku Ward",
        "Umuaku, Abia State",
        "Umuaku, Umu-Nneochi"
      ],
      "hotspot": false,
      "kind": "ward",
      "lat": 6.0101421,
      "lng": 7.3941767,
      "name": "Umuaku, Umu-Nneochi, Abia",
      "source": "temikeezy_nigeria_geojson_data",
      "state": "Abia"
    },
    {
      "aliases": [
        "Umuanyi / Absu",
        "Umuanyi / Absu Ward",
        "Umuanyi / Absu, Abia State",
        "Umuanyi / Absu, Isuikwuato"
      ],
      "hotspot": false,
      "kind": "ward",
      "lat": 5.8200238,
      "lng": 7.4071821,
      "name": "Umuanyi / Absu, Isuikwuato, Abia",
      "source": "temikeezy_nigeria_geojson_data",
      "state": "Abia"
    },
    {
      "aliases": [
        "Umuchieze I",
        "Umuchieze I Ward",
        "Umuchieze I, Abia State",
        "Umuchieze I, Umu-Nneochi"
      ],
      "hotspot": false,
      "kind": "ward",
      "lat": 5.9959916,
      "lng": 7.4514393,
      "name": "Umuchieze I, Umu-Nneochi, Abia",
      "source": "temikeezy_nigeria_geojson_data",
      "state": "Abia"
    },
    {
      "aliases": [
        "Umuchieze II",
        "Umuchieze II Ward",
        "Umuchieze II, Abia State",
        "Umuchieze II, Umu-Nneochi"
      ],
      "hotspot": false,
      "kind": "ward",
      "lat": 5.9091355,
      "lng": 7.4048632,
      "name": "Umuchieze II, Umu-Nneochi, Abia",
      "source": "temikeezy_nigeria_geojson_data",
      "state": "Abia"
    },
    {
      "aliases": [
        "Umuchieze III",
        "Umuchieze III Ward",
        "Umuchieze III, Abia State",
        "Umuchieze III, Umu-Nneochi"
      ],
      "hotspot": false,
      "kind": "ward",
      "lat": 5.9118703,
      "lng": 7.3626197,
      "name": "Umuchieze III, Umu-Nneochi, Abia",
      "source": "temikeezy_nigeria_geojson_data",
      "state": "Abia"
    },
    {
      "aliases": [
        "Umuhu / Ezechi",
        "Umuhu / Ezechi Ward",
        "Umuhu / Ezechi, Abia State",
        "Umuhu / Ezechi, Bende"
      ],
      "hotspot": false,
      "kind": "ward",
      "lat": 5.6665141,
      "lng": 7.5926107,
      "name": "Umuhu / Ezechi, Bende, Abia",
      "source": "temikeezy_nigeria_geojson_data",
      "state": "Abia"
    },
    {
      "aliases": [
        "Umuhu",
        "Umuhu Ward",
        "Umuhu, Abia State",
        "Umuhu, Umuahia North"
      ],
      "hotspot": false,
      "kind": "ward",
      "lat": 5.6254068,
      "lng": 7.4221757,
      "name": "Umuhu, Umuahia North, Abia",
      "source": "temikeezy_nigeria_geojson_data",
      "state": "Abia"
    },
    {
      "aliases": [
        "Umuigube Achara",
        "Umuigube Achara Ward",
        "Umuigube Achara, Abia State",
        "Umuigube Achara, Ukwa East"
      ],
      "hotspot": false,
      "kind": "ward",
      "lat": 4.8932289,
      "lng": 7.3432889,
      "name": "Umuigube Achara, Ukwa East, Abia",
      "source": "temikeezy_nigeria_geojson_data",
      "state": "Abia"
    },
    {
      "aliases": [
        "Umunna Nsulu",
        "Umunna Nsulu Ward",
        "Umunna Nsulu, Abia State",
        "Umunna Nsulu, Isiala Ngwa North"
      ],
      "hotspot": false,
      "kind": "ward",
      "lat": 5.3983798,
      "lng": 7.4790236,
      "name": "Umunna Nsulu, Isiala Ngwa North, Abia",
      "source": "temikeezy_nigeria_geojson_data",
      "state": "Abia"
    },
    {
      "aliases": [
        "Umunneise",
        "Umunneise Ward",
        "Umunneise, Abia State",
        "Umunneise, Osisioma"
      ],
      "hotspot": false,
      "kind": "ward",
      "lat": 5.1696002,
      "lng": 7.3534428,
      "name": "Umunneise, Osisioma, Abia",
      "source": "temikeezy_nigeria_geojson_data",
      "state": "Abia"
    },
    {
      "aliases": [
        "Umunnekwu",
        "Umunnekwu Ward",
        "Umunnekwu, Abia State",
        "Umunnekwu, Isuikwuato"
      ],
      "hotspot": false,
      "kind": "ward",
      "lat": 5.7871009,
      "lng": 7.4626997,
      "name": "Umunnekwu, Isuikwuato, Abia",
      "source": "temikeezy_nigeria_geojson_data",
      "state": "Abia"
    },
    {
      "aliases": [
        "Umuogor",
        "Umuogor Ward",
        "Umuogor, Aba North",
        "Umuogor, Abia State"
      ],
      "hotspot": false,
      "kind": "ward",
      "lat": 5.0943437,
      "lng": 7.3268612,
      "name": "Umuogor, Aba North, Abia",
      "source": "temikeezy_nigeria_geojson_data",
      "state": "Abia"
    },
    {
      "aliases": [
        "Umuoha",
        "Umuoha Ward",
        "Umuoha, Abia State",
        "Umuoha, Isiala Ngwa North"
      ],
      "hotspot": false,
      "kind": "ward",
      "lat": 5.3366764,
      "lng": 7.3276986,
      "name": "Umuoha, Isiala Ngwa North, Abia",
      "source": "temikeezy_nigeria_geojson_data",
      "state": "Abia"
    },
    {
      "aliases": [
        "Umuola",
        "Umuola Ward",
        "Umuola, Aba North",
        "Umuola, Abia State"
      ],
      "hotspot": false,
      "kind": "ward",
      "lat": 5.1089353,
      "lng": 7.3780787,
      "name": "Umuola, Aba North, Abia",
      "source": "temikeezy_nigeria_geojson_data",
      "state": "Abia"
    },
    {
      "aliases": [
        "Uratta",
        "Uratta Ward",
        "Uratta, Aba North",
        "Uratta, Abia State"
      ],
      "hotspot": false,
      "kind": "ward",
      "lat": 5.1046922,
      "lng": 7.3343977,
      "name": "Uratta, Aba North, Abia",
      "source": "temikeezy_nigeria_geojson_data",
      "state": "Abia"
    },
    {
      "aliases": [
        "Urtta",
        "Urtta Ward",
        "Urtta, Abia State",
        "Urtta, Osisioma"
      ],
      "hotspot": false,
      "kind": "ward",
      "lat": 5.1844981,
      "lng": 7.2974505,
      "name": "Urtta, Osisioma, Abia",
      "source": "temikeezy_nigeria_geojson_data",
      "state": "Abia"
    },
    {
      "aliases": [
        "Usaka",
        "Usaka Ward",
        "Usaka, Abia State",
        "Usaka, Ikwuano"
      ],
      "hotspot": false,
      "kind": "ward",
      "lat": 5.3406779,
      "lng": 7.6418798,
      "name": "Usaka, Ikwuano, Abia",
      "source": "temikeezy_nigeria_geojson_data",
      "state": "Abia"
    },
    {
      "aliases": [
        "Ututu",
        "Ututu Ward",
        "Ututu, Abia State",
        "Ututu, Arochukwu"
      ],
      "hotspot": false,
      "kind": "ward",
      "lat": 5.4304864,
      "lng": 7.9128972,
      "name": "Ututu, Arochukwu, Abia",
      "source": "temikeezy_nigeria_geojson_data",
      "state": "Abia"
    },
    {
      "aliases": [
        "Uzuakoli",
        "Uzuakoli Ward",
        "Uzuakoli, Abia State",
        "Uzuakoli, Bende"
      ],
      "hotspot": false,
      "kind": "ward",
      "lat": 5.5903697,
      "lng": 7.5537361,
      "name": "Uzuakoli, Bende, Abia",
      "source": "temikeezy_nigeria_geojson_data",
      "state": "Abia"
    },
    {
      "aliases": [
        "Ward Eight",
        "Ward Eight Ward",
        "Ward Eight, Abia State",
        "Ward Eight, Ugwunagbo"
      ],
      "hotspot": false,
      "kind": "ward",
      "lat": 5.0184527,
      "lng": 7.3047025,
      "name": "Ward Eight, Ugwunagbo, Abia",
      "source": "temikeezy_nigeria_geojson_data",
      "state": "Abia"
    },
    {
      "aliases": [
        "Ward Five",
        "Ward Five Ward",
        "Ward Five, Abia State",
        "Ward Five, Ugwunagbo"
      ],
      "hotspot": false,
      "kind": "ward",
      "lat": 5.0087597,
      "lng": 7.3290609,
      "name": "Ward Five, Ugwunagbo, Abia",
      "source": "temikeezy_nigeria_geojson_data",
      "state": "Abia"
    },
    {
      "aliases": [
        "Ward Four",
        "Ward Four Ward",
        "Ward Four, Abia State",
        "Ward Four, Ugwunagbo"
      ],
      "hotspot": false,
      "kind": "ward",
      "lat": 5.0022586,
      "lng": 7.3734599,
      "name": "Ward Four, Ugwunagbo, Abia",
      "source": "temikeezy_nigeria_geojson_data",
      "state": "Abia"
    },
    {
      "aliases": [
        "Ward Nine",
        "Ward Nine Ward",
        "Ward Nine, Abia State",
        "Ward Nine, Ugwunagbo"
      ],
      "hotspot": false,
      "kind": "ward",
      "lat": 4.9903227,
      "lng": 7.3018073,
      "name": "Ward Nine, Ugwunagbo, Abia",
      "source": "temikeezy_nigeria_geojson_data",
      "state": "Abia"
    },
    {
      "aliases": [
        "Ward One",
        "Ward One Ward",
        "Ward One, Abia State",
        "Ward One, Ugwunagbo"
      ],
      "hotspot": false,
      "kind": "ward",
      "lat": 5.0121969,
      "lng": 7.3483079,
      "name": "Ward One, Ugwunagbo, Abia",
      "source": "temikeezy_nigeria_geojson_data",
      "state": "Abia"
    },
    {
      "aliases": [
        "Ward Seven",
        "Ward Seven Ward",
        "Ward Seven, Abia State",
        "Ward Seven, Ugwunagbo"
      ],
      "hotspot": false,
      "kind": "ward",
      "lat": 5.0459822,
      "lng": 7.298075,
      "name": "Ward Seven, Ugwunagbo, Abia",
      "source": "temikeezy_nigeria_geojson_data",
      "state": "Abia"
    },
    {
      "aliases": [
        "Ward Six",
        "Ward Six Ward",
        "Ward Six, Abia State",
        "Ward Six, Ugwunagbo"
      ],
      "hotspot": false,
      "kind": "ward",
      "lat": 5.0330086,
      "lng": 7.3308589,
      "name": "Ward Six, Ugwunagbo, Abia",
      "source": "temikeezy_nigeria_geojson_data",
      "state": "Abia"
    },
    {
      "aliases": [
        "Ward Ten",
        "Ward Ten Ward",
        "Ward Ten, Abia State",
        "Ward Ten, Ugwunagbo"
      ],
      "hotspot": false,
      "kind": "ward",
      "lat": 4.9782944,
      "lng": 7.3535347,
      "name": "Ward Ten, Ugwunagbo, Abia",
      "source": "temikeezy_nigeria_geojson_data",
      "state": "Abia"
    },
    {
      "aliases": [
        "Ward Three",
        "Ward Three Ward",
        "Ward Three, Abia State",
        "Ward Three, Ugwunagbo"
      ],
      "hotspot": false,
      "kind": "ward",
      "lat": 5.0322075,
      "lng": 7.3745303,
      "name": "Ward Three, Ugwunagbo, Abia",
      "source": "temikeezy_nigeria_geojson_data",
      "state": "Abia"
    },
    {
      "aliases": [
        "Ward Two",
        "Ward Two Ward",
        "Ward Two, Abia State",
        "Ward Two, Ugwunagbo"
      ],
      "hotspot": false,
      "kind": "ward",
      "lat": 5.0080742,
      "lng": 7.3953864,
      "name": "Ward Two, Ugwunagbo, Abia",
      "source": "temikeezy_nigeria_geojson_data",
      "state": "Abia"
    },
    {
      "aliases": [
        "Demsa",
        "Demsa, Nigeria"
      ],
      "hotspot": false,
      "kind": "lga",
      "lat": 9.4166667,
      "lng": 12.1333333,
      "name": "Demsa, Adamawa",
      "source": "xosasx_nigerian_local_government_areas",
      "state": "Adamawa"
    },
    {
      "aliases": [
        "Fufore",
        "Fufore, Nigeria"
      ],
      "hotspot": false,
      "kind": "lga",
      "lat": 9.2166667,
      "lng": 12.65,
      "name": "Fufore, Adamawa",
      "source": "xosasx_nigerian_local_government_areas",
      "state": "Adamawa"
    },
    {
      "aliases": [
        "Ganye",
        "Ganye, Nigeria"
      ],
      "hotspot": false,
      "kind": "lga",
      "lat": 8.43333,
      "lng": 12.0667,
      "name": "Ganye, Adamawa",
      "source": "xosasx_nigerian_local_government_areas",
      "state": "Adamawa"
    },
    {
      "aliases": [
        "Girei",
        "Girei, Nigeria"
      ],
      "hotspot": false,
      "kind": "lga",
      "lat": 9.36667,
      "lng": 12.55,
      "name": "Girei, Adamawa",
      "source": "xosasx_nigerian_local_government_areas",
      "state": "Adamawa"
    },
    {
      "aliases": [
        "Gombi",
        "Gombi, Nigeria"
      ],
      "hotspot": false,
      "kind": "lga",
      "lat": 10.1622222,
      "lng": 12.74,
      "name": "Gombi, Adamawa",
      "source": "xosasx_nigerian_local_government_areas",
      "state": "Adamawa"
    },
    {
      "aliases": [
        "Guyuk",
        "Guyuk, Nigeria"
      ],
      "hotspot": false,
      "kind": "lga",
      "lat": 9.9055556,
      "lng": 11.9283333,
      "name": "Guyuk, Adamawa",
      "source": "xosasx_nigerian_local_government_areas",
      "state": "Adamawa"
    },
    {
      "aliases": [
        "Hong",
        "Hong, Nigeria"
      ],
      "hotspot": false,
      "kind": "lga",
      "lat": 10.2316667,
      "lng": 12.9302778,
      "name": "Hong, Adamawa",
      "source": "xosasx_nigerian_local_government_areas",
      "state": "Adamawa"
    },
    {
      "aliases": [
        "Jada",
        "Jada, Nigeria"
      ],
      "hotspot": false,
      "kind": "lga",
      "lat": 8.7666667,
      "lng": 12.15,
      "name": "Jada, Adamawa",
      "source": "xosasx_nigerian_local_government_areas",
      "state": "Adamawa"
    },
    {
      "aliases": [
        "Lamurde",
        "Lamurde, Nigeria"
      ],
      "hotspot": false,
      "kind": "lga",
      "lat": 9.6,
      "lng": 11.7833333,
      "name": "Lamurde, Adamawa",
      "source": "xosasx_nigerian_local_government_areas",
      "state": "Adamawa"
    },
    {
      "aliases": [
        "Madagali",
        "Madagali, Nigeria"
      ],
      "hotspot": false,
      "kind": "lga",
      "lat": 10.7461111,
      "lng": 13.4158333,
      "name": "Madagali, Adamawa",
      "source": "xosasx_nigerian_local_government_areas",
      "state": "Adamawa"
    },
    {
      "aliases": [
        "Maiha",
        "Maiha, Nigeria"
      ],
      "hotspot": false,
      "kind": "lga",
      "lat": 9.9955556,
      "lng": 13.2180556,
      "name": "Maiha, Adamawa",
      "source": "xosasx_nigerian_local_government_areas",
      "state": "Adamawa"
    },
    {
      "aliases": [
        "Mayo Belwa",
        "Mayo Belwa, Nigeria"
      ],
      "hotspot": false,
      "kind": "lga",
      "lat": 9.05,
      "lng": 12.05,
      "name": "Mayo Belwa, Adamawa",
      "source": "xosasx_nigerian_local_government_areas",
      "state": "Adamawa"
    },
    {
      "aliases": [
        "Michika",
        "Michika, Nigeria"
      ],
      "hotspot": false,
      "kind": "lga",
      "lat": 10.6166667,
      "lng": 13.3833333,
      "name": "Michika, Adamawa",
      "source": "xosasx_nigerian_local_government_areas",
      "state": "Adamawa"
    },
    {
      "aliases": [
        "Mubi North",
        "Mubi North, Nigeria"
      ],
      "hotspot": false,
      "kind": "lga",
      "lat": 10.2666667,
      "lng": 13.2666667,
      "name": "Mubi North, Adamawa",
      "source": "xosasx_nigerian_local_government_areas",
      "state": "Adamawa"
    },
    {
      "aliases": [
        "Mubi South",
        "Mubi South, Nigeria"
      ],
      "hotspot": false,
      "kind": "lga",
      "lat": 10.1874,
      "lng": 13.39576,
      "name": "Mubi South, Adamawa",
      "source": "xosasx_nigerian_local_government_areas",
      "state": "Adamawa"
    },
    {
      "aliases": [
        "Numan",
        "Numan, Nigeria"
      ],
      "hotspot": false,
      "kind": "lga",
      "lat": 9.4669444,
      "lng": 12.0327778,
      "name": "Numan, Adamawa",
      "source": "xosasx_nigerian_local_government_areas",
      "state": "Adamawa"
    },
    {
      "aliases": [
        "Shelleng",
        "Shelleng, Nigeria"
      ],
      "hotspot": false,
      "kind": "lga",
      "lat": 9.8847222,
      "lng": 12.0088889,
      "name": "Shelleng, Adamawa",
      "source": "xosasx_nigerian_local_government_areas",
      "state": "Adamawa"
    },
    {
      "aliases": [
        "Song",
        "Song, Nigeria"
      ],
      "hotspot": false,
      "kind": "lga",
      "lat": 9.8244444,
      "lng": 12.625,
      "name": "Song, Adamawa",
      "source": "xosasx_nigerian_local_government_areas",
      "state": "Adamawa"
    },
    {
      "aliases": [
        "Toungo",
        "Toungo, Nigeria"
      ],
      "hotspot": false,
      "kind": "lga",
      "lat": 8.1166667,
      "lng": 12.05,
      "name": "Toungo, Adamawa",
      "source": "xosasx_nigerian_local_government_areas",
      "state": "Adamawa"
    },
    {
      "aliases": [
        "Yola North",
        "Yola North, Nigeria"
      ],
      "hotspot": false,
      "kind": "lga",
      "lat": 9.188528,
      "lng": 12.393866,
      "name": "Yola North, Adamawa",
      "source": "xosasx_nigerian_local_government_areas",
      "state": "Adamawa"
    },
    {
      "aliases": [
        "Yola South",
        "Yola South, Nigeria"
      ],
      "hotspot": false,
      "kind": "lga",
      "lat": 9.249949,
      "lng": 12.412618,
      "name": "Yola South, Adamawa",
      "source": "xosasx_nigerian_local_government_areas",
      "state": "Adamawa"
    },
    {
      "aliases": [
        "Adarawo",
        "Adarawo Ward",
        "Adarawo, Adamawa State",
        "Adarawo, Yola South"
      ],
      "hotspot": false,
      "kind": "ward",
      "lat": 9.173916,
      "lng": 12.6497736,
      "name": "Adarawo, Yola South, Adamawa",
      "source": "temikeezy_nigeria_geojson_data",
      "state": "Adamawa"
    },
    {
      "aliases": [
        "Ajiya",
        "Ajiya Ward",
        "Ajiya, Adamawa State",
        "Ajiya, Yola North"
      ],
      "hotspot": false,
      "kind": "ward",
      "lat": 9.2485869,
      "lng": 12.5105527,
      "name": "Ajiya, Yola North, Adamawa",
      "source": "temikeezy_nigeria_geojson_data",
      "state": "Adamawa"
    },
    {
      "aliases": [
        "Alkalawa",
        "Alkalawa Ward",
        "Alkalawa, Adamawa State",
        "Alkalawa, Yola North"
      ],
      "hotspot": false,
      "kind": "ward",
      "lat": 9.2549052,
      "lng": 12.5059703,
      "name": "Alkalawa, Yola North, Adamawa",
      "source": "temikeezy_nigeria_geojson_data",
      "state": "Adamawa"
    },
    {
      "aliases": [
        "Babel",
        "Babel Ward",
        "Babel, Adamawa State",
        "Babel, Madagali"
      ],
      "hotspot": false,
      "kind": "ward",
      "lat": 10.8525445,
      "lng": 13.6218296,
      "name": "Babel, Madagali, Adamawa",
      "source": "temikeezy_nigeria_geojson_data",
      "state": "Adamawa"
    },
    {
      "aliases": [
        "Bahuli",
        "Bahuli Ward",
        "Bahuli, Adamawa State",
        "Bahuli, Mubi North"
      ],
      "hotspot": false,
      "kind": "ward",
      "lat": 10.2897018,
      "lng": 13.4291932,
      "name": "Bahuli, Mubi North, Adamawa",
      "source": "temikeezy_nigeria_geojson_data",
      "state": "Adamawa"
    },
    {
      "aliases": [
        "Bajama",
        "Bajama Ward",
        "Bajama, Adamawa State",
        "Bajama, Mayo-Belwa"
      ],
      "hotspot": false,
      "kind": "ward",
      "lat": 9.0786386,
      "lng": 11.916382,
      "name": "Bajama, Mayo-Belwa, Adamawa",
      "source": "temikeezy_nigeria_geojson_data",
      "state": "Adamawa"
    },
    {
      "aliases": [
        "Bakari Guso",
        "Bakari Guso Ward",
        "Bakari Guso, Adamawa State",
        "Bakari Guso, Ganye"
      ],
      "hotspot": false,
      "kind": "ward",
      "lat": 8.4466469,
      "lng": 12.2439,
      "name": "Bakari Guso, Ganye, Adamawa",
      "source": "temikeezy_nigeria_geojson_data",
      "state": "Adamawa"
    },
    {
      "aliases": [
        "Bako",
        "Bako Ward",
        "Bako, Adamawa State",
        "Bako, Yola South"
      ],
      "hotspot": false,
      "kind": "ward",
      "lat": 9.1739475,
      "lng": 12.6164315,
      "name": "Bako, Yola South, Adamawa",
      "source": "temikeezy_nigeria_geojson_data",
      "state": "Adamawa"
    },
    {
      "aliases": [
        "Bakta",
        "Bakta Ward",
        "Bakta, Adamawa State",
        "Bakta, Shelleng"
      ],
      "hotspot": false,
      "kind": "ward",
      "lat": 9.8487351,
      "lng": 12.2597338,
      "name": "Bakta, Shelleng, Adamawa",
      "source": "temikeezy_nigeria_geojson_data",
      "state": "Adamawa"
    },
    {
      "aliases": [
        "Bangshika",
        "Bangshika Ward",
        "Bangshika, Adamawa State",
        "Bangshika, Hong"
      ],
      "hotspot": false,
      "kind": "ward",
      "lat": 10.3013998,
      "lng": 12.9823935,
      "name": "Bangshika, Hong, Adamawa",
      "source": "temikeezy_nigeria_geojson_data",
      "state": "Adamawa"
    },
    {
      "aliases": [
        "Banjiram",
        "Banjiram Ward",
        "Banjiram, Adamawa State",
        "Banjiram, Guyuk"
      ],
      "hotspot": false,
      "kind": "ward",
      "lat": 9.7834945,
      "lng": 12.0456268,
      "name": "Banjiram, Guyuk, Adamawa",
      "source": "temikeezy_nigeria_geojson_data",
      "state": "Adamawa"
    },
    {
      "aliases": [
        "Bare",
        "Bare Ward",
        "Bare, Adamawa State",
        "Bare, Numan"
      ],
      "hotspot": false,
      "kind": "ward",
      "lat": 9.5842978,
      "lng": 12.1107691,
      "name": "Bare, Numan, Adamawa",
      "source": "temikeezy_nigeria_geojson_data",
      "state": "Adamawa"
    },
    {
      "aliases": [
        "Bazza Margi",
        "Bazza Margi Ward",
        "Bazza Margi, Adamawa State",
        "Bazza Margi, Michika"
      ],
      "hotspot": false,
      "kind": "ward",
      "lat": 10.5611995,
      "lng": 13.3451327,
      "name": "Bazza Margi, Michika, Adamawa",
      "source": "temikeezy_nigeria_geojson_data",
      "state": "Adamawa"
    },
    {
      "aliases": [
        "Belel",
        "Belel Ward",
        "Belel, Adamawa State",
        "Belel, Maiha"
      ],
      "hotspot": false,
      "kind": "ward",
      "lat": 9.6119562,
      "lng": 13.226122,
      "name": "Belel, Maiha, Adamawa",
      "source": "temikeezy_nigeria_geojson_data",
      "state": "Adamawa"
    },
    {
      "aliases": [
        "Beti",
        "Beti Ward",
        "Beti, Adamawa State",
        "Beti, Fufore"
      ],
      "hotspot": false,
      "kind": "ward",
      "lat": 9.02264,
      "lng": 12.7438867,
      "name": "Beti, Fufore, Adamawa",
      "source": "temikeezy_nigeria_geojson_data",
      "state": "Adamawa"
    },
    {
      "aliases": [
        "Betso",
        "Betso Ward",
        "Betso, Adamawa State",
        "Betso, Mubi North"
      ],
      "hotspot": false,
      "kind": "ward",
      "lat": 10.4772933,
      "lng": 13.3381204,
      "name": "Betso, Mubi North, Adamawa",
      "source": "temikeezy_nigeria_geojson_data",
      "state": "Adamawa"
    },
    {
      "aliases": [
        "Bille",
        "Bille Ward",
        "Bille, Adamawa State",
        "Bille, Demsa"
      ],
      "hotspot": false,
      "kind": "ward",
      "lat": 9.2245704,
      "lng": 11.9979134,
      "name": "Bille, Demsa, Adamawa",
      "source": "temikeezy_nigeria_geojson_data",
      "state": "Adamawa"
    },
    {
      "aliases": [
        "Binyeri",
        "Binyeri Ward",
        "Binyeri, Adamawa State",
        "Binyeri, Mayo-Belwa"
      ],
      "hotspot": false,
      "kind": "ward",
      "lat": 8.715779,
      "lng": 11.9270274,
      "name": "Binyeri, Mayo-Belwa, Adamawa",
      "source": "temikeezy_nigeria_geojson_data",
      "state": "Adamawa"
    },
    {
      "aliases": [
        "Bobini",
        "Bobini Ward",
        "Bobini, Adamawa State",
        "Bobini, Guyuk"
      ],
      "hotspot": false,
      "kind": "ward",
      "lat": 10.0076478,
      "lng": 11.9783892,
      "name": "Bobini, Guyuk, Adamawa",
      "source": "temikeezy_nigeria_geojson_data",
      "state": "Adamawa"
    },
    {
      "aliases": [
        "Bodeno",
        "Bodeno Ward",
        "Bodeno, Adamawa State",
        "Bodeno, Guyuk"
      ],
      "hotspot": false,
      "kind": "ward",
      "lat": 9.9669496,
      "lng": 12.0055719,
      "name": "Bodeno, Guyuk, Adamawa",
      "source": "temikeezy_nigeria_geojson_data",
      "state": "Adamawa"
    },
    {
      "aliases": [
        "Bodwai",
        "Bodwai Ward",
        "Bodwai, Adamawa State",
        "Bodwai, Shelleng"
      ],
      "hotspot": false,
      "kind": "ward",
      "lat": 10.0852616,
      "lng": 12.2844263,
      "name": "Bodwai, Shelleng, Adamawa",
      "source": "temikeezy_nigeria_geojson_data",
      "state": "Adamawa"
    },
    {
      "aliases": [
        "Boga/ Dingai",
        "Boga/ Dingai Ward",
        "Boga/ Dingai, Adamawa State",
        "Boga/ Dingai, Gombi"
      ],
      "hotspot": false,
      "kind": "ward",
      "lat": 10.1098745,
      "lng": 12.4268482,
      "name": "Boga/ Dingai, Gombi, Adamawa",
      "source": "temikeezy_nigeria_geojson_data",
      "state": "Adamawa"
    },
    {
      "aliases": [
        "Bole Yolde Pate",
        "Bole Yolde Pate Ward",
        "Bole Yolde Pate, Adamawa State",
        "Bole Yolde Pate, Yola South"
      ],
      "hotspot": false,
      "kind": "ward",
      "lat": 9.1262935,
      "lng": 12.6437374,
      "name": "Bole Yolde Pate, Yola South, Adamawa",
      "source": "temikeezy_nigeria_geojson_data",
      "state": "Adamawa"
    },
    {
      "aliases": [
        "Bolki",
        "Bolki Ward",
        "Bolki, Adamawa State",
        "Bolki, Numan"
      ],
      "hotspot": false,
      "kind": "ward",
      "lat": 9.3512407,
      "lng": 11.7904162,
      "name": "Bolki, Numan, Adamawa",
      "source": "temikeezy_nigeria_geojson_data",
      "state": "Adamawa"
    },
    {
      "aliases": [
        "Borrong",
        "Borrong Ward",
        "Borrong, Adamawa State",
        "Borrong, Demsa"
      ],
      "hotspot": false,
      "kind": "ward",
      "lat": 9.5088091,
      "lng": 12.3351681,
      "name": "Borrong, Demsa, Adamawa",
      "source": "temikeezy_nigeria_geojson_data",
      "state": "Adamawa"
    },
    {
      "aliases": [
        "Chikila",
        "Chikila Ward",
        "Chikila, Adamawa State",
        "Chikila, Guyuk"
      ],
      "hotspot": false,
      "kind": "ward",
      "lat": 9.7671767,
      "lng": 11.9590239,
      "name": "Chikila, Guyuk, Adamawa",
      "source": "temikeezy_nigeria_geojson_data",
      "state": "Adamawa"
    },
    {
      "aliases": [
        "Dakri",
        "Dakri Ward",
        "Dakri, Adamawa State",
        "Dakri, Girie"
      ],
      "hotspot": false,
      "kind": "ward",
      "lat": 9.3282676,
      "lng": 12.5657633,
      "name": "Dakri, Girie, Adamawa",
      "source": "temikeezy_nigeria_geojson_data",
      "state": "Adamawa"
    },
    {
      "aliases": [
        "Daksiri",
        "Daksiri Ward",
        "Daksiri, Adamawa State",
        "Daksiri, Hong"
      ],
      "hotspot": false,
      "kind": "ward",
      "lat": 10.0976143,
      "lng": 12.9665149,
      "name": "Daksiri, Hong, Adamawa",
      "source": "temikeezy_nigeria_geojson_data",
      "state": "Adamawa"
    },
    {
      "aliases": [
        "Damare",
        "Damare Ward",
        "Damare, Adamawa State",
        "Damare, Girie"
      ],
      "hotspot": false,
      "kind": "ward",
      "lat": 9.2872937,
      "lng": 12.5851692,
      "name": "Damare, Girie, Adamawa",
      "source": "temikeezy_nigeria_geojson_data",
      "state": "Adamawa"
    },
    {
      "aliases": [
        "Danaba",
        "Danaba Ward",
        "Danaba, Adamawa State",
        "Danaba, Jada"
      ],
      "hotspot": false,
      "kind": "ward",
      "lat": 8.5440839,
      "lng": 12.1938004,
      "name": "Danaba, Jada, Adamawa",
      "source": "temikeezy_nigeria_geojson_data",
      "state": "Adamawa"
    },
    {
      "aliases": [
        "Dawo I",
        "Dawo I Ward",
        "Dawo I, Adamawa State",
        "Dawo I, Teungo"
      ],
      "hotspot": false,
      "kind": "ward",
      "lat": 8.2304355,
      "lng": 11.6922811,
      "name": "Dawo I, Teungo, Adamawa",
      "source": "temikeezy_nigeria_geojson_data",
      "state": "Adamawa"
    },
    {
      "aliases": [
        "Dawo II",
        "Dawo II Ward",
        "Dawo II, Adamawa State",
        "Dawo II, Teungo"
      ],
      "hotspot": false,
      "kind": "ward",
      "lat": 8.049511,
      "lng": 11.7887017,
      "name": "Dawo II, Teungo, Adamawa",
      "source": "temikeezy_nigeria_geojson_data",
      "state": "Adamawa"
    },
    {
      "aliases": [
        "Demsa",
        "Demsa Ward",
        "Demsa, Adamawa State",
        "Demsa, Demsa"
      ],
      "hotspot": false,
      "kind": "ward",
      "lat": 9.3413477,
      "lng": 12.353469,
      "name": "Demsa, Demsa, Adamawa",
      "source": "temikeezy_nigeria_geojson_data",
      "state": "Adamawa"
    },
    {
      "aliases": [
        "Digil",
        "Digil Ward",
        "Digil, Adamawa State",
        "Digil, Mubi North"
      ],
      "hotspot": false,
      "kind": "ward",
      "lat": 10.2804713,
      "lng": 13.3180961,
      "name": "Digil, Mubi North, Adamawa",
      "source": "temikeezy_nigeria_geojson_data",
      "state": "Adamawa"
    },
    {
      "aliases": [
        "Dilli",
        "Dilli Ward",
        "Dilli, Adamawa State",
        "Dilli, Demsa"
      ],
      "hotspot": false,
      "kind": "ward",
      "lat": 9.5429717,
      "lng": 12.2122761,
      "name": "Dilli, Demsa, Adamawa",
      "source": "temikeezy_nigeria_geojson_data",
      "state": "Adamawa"
    },
    {
      "aliases": [
        "Dirbishi/Gandira",
        "Dirbishi/Gandira Ward",
        "Dirbishi/Gandira, Adamawa State",
        "Dirbishi/Gandira, Mubi South"
      ],
      "hotspot": false,
      "kind": "ward",
      "lat": 10.2207737,
      "lng": 13.4503051,
      "name": "Dirbishi/Gandira, Mubi South, Adamawa",
      "source": "temikeezy_nigeria_geojson_data",
      "state": "Adamawa"
    },
    {
      "aliases": [
        "Dirma",
        "Dirma Ward",
        "Dirma, Adamawa State",
        "Dirma, Song"
      ],
      "hotspot": false,
      "kind": "ward",
      "lat": 9.8621276,
      "lng": 12.3521601,
      "name": "Dirma, Song, Adamawa",
      "source": "temikeezy_nigeria_geojson_data",
      "state": "Adamawa"
    },
    {
      "aliases": [
        "Dong",
        "Dong Ward",
        "Dong, Adamawa State",
        "Dong, Demsa"
      ],
      "hotspot": false,
      "kind": "ward",
      "lat": 9.3655198,
      "lng": 11.9755222,
      "name": "Dong, Demsa, Adamawa",
      "source": "temikeezy_nigeria_geojson_data",
      "state": "Adamawa"
    },
    {
      "aliases": [
        "Doubeli",
        "Doubeli Ward",
        "Doubeli, Adamawa State",
        "Doubeli, Yola North"
      ],
      "hotspot": false,
      "kind": "ward",
      "lat": 9.2686522,
      "lng": 12.4864085,
      "name": "Doubeli, Yola North, Adamawa",
      "source": "temikeezy_nigeria_geojson_data",
      "state": "Adamawa"
    },
    {
      "aliases": [
        "Dubwangun",
        "Dubwangun Ward",
        "Dubwangun, Adamawa State",
        "Dubwangun, Lamurde"
      ],
      "hotspot": false,
      "kind": "ward",
      "lat": 9.5927868,
      "lng": 11.8677586,
      "name": "Dubwangun, Lamurde, Adamawa",
      "source": "temikeezy_nigeria_geojson_data",
      "state": "Adamawa"
    },
    {
      "aliases": [
        "Duhu/ Shuwa",
        "Duhu/ Shuwa Ward",
        "Duhu/ Shuwa, Adamawa State",
        "Duhu/ Shuwa, Madagali"
      ],
      "hotspot": false,
      "kind": "ward",
      "lat": 10.7870867,
      "lng": 13.4793103,
      "name": "Duhu/ Shuwa, Madagali, Adamawa",
      "source": "temikeezy_nigeria_geojson_data",
      "state": "Adamawa"
    },
    {
      "aliases": [
        "Dukul",
        "Dukul Ward",
        "Dukul, Adamawa State",
        "Dukul, Guyuk"
      ],
      "hotspot": false,
      "kind": "ward",
      "lat": 9.8798692,
      "lng": 11.9500699,
      "name": "Dukul, Guyuk, Adamawa",
      "source": "temikeezy_nigeria_geojson_data",
      "state": "Adamawa"
    },
    {
      "aliases": [
        "Dumna",
        "Dumna Ward",
        "Dumna, Adamawa State",
        "Dumna, Guyuk"
      ],
      "hotspot": false,
      "kind": "ward",
      "lat": 9.7174402,
      "lng": 11.9068408,
      "name": "Dumna, Guyuk, Adamawa",
      "source": "temikeezy_nigeria_geojson_data",
      "state": "Adamawa"
    },
    {
      "aliases": [
        "Dumne",
        "Dumne Ward",
        "Dumne, Adamawa State",
        "Dumne, Song"
      ],
      "hotspot": false,
      "kind": "ward",
      "lat": 9.773972,
      "lng": 12.4476746,
      "name": "Dumne, Song, Adamawa",
      "source": "temikeezy_nigeria_geojson_data",
      "state": "Adamawa"
    },
    {
      "aliases": [
        "Duvu/ Chaba/ Girburum",
        "Duvu/ Chaba/ Girburum Ward",
        "Duvu/ Chaba/ Girburum, Adamawa State",
        "Duvu/ Chaba/ Girburum, Mubi South"
      ],
      "hotspot": false,
      "kind": "ward",
      "lat": 10.1443726,
      "lng": 13.4090991,
      "name": "Duvu/ Chaba/ Girburum, Mubi South, Adamawa",
      "source": "temikeezy_nigeria_geojson_data",
      "state": "Adamawa"
    },
    {
      "aliases": [
        "Duwa",
        "Duwa Ward",
        "Duwa, Adamawa State",
        "Duwa, Gombi"
      ],
      "hotspot": false,
      "kind": "ward",
      "lat": 10.0768403,
      "lng": 12.5314682,
      "name": "Duwa, Gombi, Adamawa",
      "source": "temikeezy_nigeria_geojson_data",
      "state": "Adamawa"
    },
    {
      "aliases": [
        "Dwam",
        "Dwam Ward",
        "Dwam, Adamawa State",
        "Dwam, Demsa"
      ],
      "hotspot": false,
      "kind": "ward",
      "lat": 9.4163303,
      "lng": 12.1972596,
      "name": "Dwam, Demsa, Adamawa",
      "source": "temikeezy_nigeria_geojson_data",
      "state": "Adamawa"
    },
    {
      "aliases": [
        "Farang",
        "Farang Ward",
        "Farang, Adamawa State",
        "Farang, Fufore"
      ],
      "hotspot": false,
      "kind": "ward",
      "lat": 9.5896766,
      "lng": 12.9819331,
      "name": "Farang, Fufore, Adamawa",
      "source": "temikeezy_nigeria_geojson_data",
      "state": "Adamawa"
    },
    {
      "aliases": [
        "Fufore",
        "Fufore Ward",
        "Fufore, Adamawa State",
        "Fufore, Fufore"
      ],
      "hotspot": false,
      "kind": "ward",
      "lat": 9.241196,
      "lng": 12.7457089,
      "name": "Fufore, Fufore, Adamawa",
      "source": "temikeezy_nigeria_geojson_data",
      "state": "Adamawa"
    },
    {
      "aliases": [
        "Futudou / Futules",
        "Futudou / Futules Ward",
        "Futudou / Futules, Adamawa State",
        "Futudou / Futules, Michika"
      ],
      "hotspot": false,
      "kind": "ward",
      "lat": 10.58819,
      "lng": 13.475159,
      "name": "Futudou / Futules, Michika, Adamawa",
      "source": "temikeezy_nigeria_geojson_data",
      "state": "Adamawa"
    },
    {
      "aliases": [
        "Ga'anda",
        "Ga'anda Ward",
        "Ga'anda, Adamawa State",
        "Ga'anda, Gombi"
      ],
      "hotspot": false,
      "kind": "ward",
      "lat": 10.1734899,
      "lng": 12.5088154,
      "name": "Ga'anda, Gombi, Adamawa",
      "source": "temikeezy_nigeria_geojson_data",
      "state": "Adamawa"
    },
    {
      "aliases": [
        "Gabun",
        "Gabun Ward",
        "Gabun, Adamawa State",
        "Gabun, Gombi"
      ],
      "hotspot": false,
      "kind": "ward",
      "lat": 10.2580339,
      "lng": 12.4622859,
      "name": "Gabun, Gombi, Adamawa",
      "source": "temikeezy_nigeria_geojson_data",
      "state": "Adamawa"
    },
    {
      "aliases": [
        "Gamadio",
        "Gamadio Ward",
        "Gamadio, Adamawa State",
        "Gamadio, Numan"
      ],
      "hotspot": false,
      "kind": "ward",
      "lat": 9.4322761,
      "lng": 11.7350816,
      "name": "Gamadio, Numan, Adamawa",
      "source": "temikeezy_nigeria_geojson_data",
      "state": "Adamawa"
    },
    {
      "aliases": [
        "Gamu",
        "Gamu Ward",
        "Gamu, Adamawa State",
        "Gamu, Ganye"
      ],
      "hotspot": false,
      "kind": "ward",
      "lat": 8.23205,
      "lng": 12.0601702,
      "name": "Gamu, Ganye, Adamawa",
      "source": "temikeezy_nigeria_geojson_data",
      "state": "Adamawa"
    },
    {
      "aliases": [
        "Gangfada",
        "Gangfada Ward",
        "Gangfada, Adamawa State",
        "Gangfada, Mayo-Belwa"
      ],
      "hotspot": false,
      "kind": "ward",
      "lat": 8.5850555,
      "lng": 12.1008273,
      "name": "Gangfada, Mayo-Belwa, Adamawa",
      "source": "temikeezy_nigeria_geojson_data",
      "state": "Adamawa"
    },
    {
      "aliases": [
        "Ganye I",
        "Ganye I Ward",
        "Ganye I, Adamawa State",
        "Ganye I, Ganye"
      ],
      "hotspot": false,
      "kind": "ward",
      "lat": 8.3659788,
      "lng": 12.0572864,
      "name": "Ganye I, Ganye, Adamawa",
      "source": "temikeezy_nigeria_geojson_data",
      "state": "Adamawa"
    },
    {
      "aliases": [
        "Ganye II",
        "Ganye II Ward",
        "Ganye II, Adamawa State",
        "Ganye II, Ganye"
      ],
      "hotspot": false,
      "kind": "ward",
      "lat": 8.3923345,
      "lng": 12.1076003,
      "name": "Ganye II, Ganye, Adamawa",
      "source": "temikeezy_nigeria_geojson_data",
      "state": "Adamawa"
    },